 {
  [
    {
      "telNo" : "",
      "lon" : "128.985271437846",
      "releaseDate" : "",
      "operateTime" : "09:00~18:00",
      "dropFlag" : "N",
      "lat" : "35.0974088103159",
      "name" : "경동오토바이[경동오토바이]",
      "serialNumber" : "101703",
      "defaultImgUrl" : "https:\/\/gf.dotstation.kr\/gogoro_station\/0\/basic_07f4807c90fff9f88dc6a833a12dcaac.jpg",
      "address" : "부산광역시 사하구 괴정로 217 (괴정동)"
    },
    {
      "telNo" : "010-4908-4444",
      "lon" : "128.722943662945",
      "releaseDate" : "",
      "operateTime" : "",
      "dropFlag" : "N",
      "lat" : "35.8314316755161",
      "name" : "경산 고샵[닷스테이션]",
      "serialNumber" : "101730",
      "defaultImgUrl" : "https:\/\/gf.dotstation.kr\/gogoro_station\/0\/basic_07f4807c90fff9f88dc6a833a12dcaac.jpg",
      "address" : "경상북도 경산시 경산로 263 (중산동) 1층 3호"
    },
    {
      "telNo" : "010-8604-4534",
      "lon" : "126.806791451351",
      "releaseDate" : "",
      "operateTime" : "",
      "dropFlag" : "N",
      "lat" : "35.1511554124526",
      "name" : "광주 광남모터스 고샵[광남모터스]",
      "serialNumber" : "101950",
      "defaultImgUrl" : "https:\/\/gf.dotstation.kr\/gogoro_station\/0\/basic_07f4807c90fff9f88dc6a833a12dcaac.jpg",
      "address" : "광주광역시 광산구 금봉로74번길 13 (소촌동)"
    },
    {
      "telNo" : "010-6429-9915",
      "lon" : "126.901334480018",
      "releaseDate" : "",
      "operateTime" : "",
      "dropFlag" : "N",
      "lat" : "35.1359834510961",
      "name" : "광주 닷남구점 고샵[닷스테이션 광주남구점]",
      "serialNumber" : "101121",
      "defaultImgUrl" : "https:\/\/gf.dotstation.kr\/gogoro_station\/0\/basic_07f4807c90fff9f88dc6a833a12dcaac.jpg",
      "address" : "광주광역시 남구 독립로 25-1 (백운동) 1층"
    },
    {
      "telNo" : "062-400-9945",
      "lon" : "126.862732151333",
      "releaseDate" : "",
      "operateTime" : "",
      "dropFlag" : "N",
      "lat" : "35.1449298375957",
      "name" : "광주 닷서구점 고샵[닷스테이션 광주서구점]",
      "serialNumber" : "101435",
      "defaultImgUrl" : "https:\/\/gf.dotstation.kr\/gogoro_station\/0\/basic_07f4807c90fff9f88dc6a833a12dcaac.jpg",
      "address" : "광주광역시 서구 화정로49번길 3 (쌍촌동) 1층"
    },
    {
      "telNo" : "",
      "lon" : "126.923095347681",
      "releaseDate" : "",
      "operateTime" : "",
      "dropFlag" : "N",
      "lat" : "35.1796160993741",
      "name" : "광주 도도모터스 고샵[도도모터스]",
      "serialNumber" : "101822",
      "defaultImgUrl" : "https:\/\/gf.dotstation.kr\/gogoro_station\/0\/basic_07f4807c90fff9f88dc6a833a12dcaac.jpg",
      "address" : "광주광역시 북구 중문로84번길 41 (문흥동) 1층 1호 1층"
    },
    {
      "telNo" : "010-8392-8374",
      "lon" : "126.806446452382",
      "releaseDate" : "",
      "operateTime" : "",
      "dropFlag" : "N",
      "lat" : "35.1793521966454",
      "name" : "광주 디에스 고샵[디에스모빌리티]",
      "serialNumber" : "102026",
      "defaultImgUrl" : "https:\/\/gf.dotstation.kr\/gogoro_station\/0\/basic_07f4807c90fff9f88dc6a833a12dcaac.jpg",
      "address" : "광주광역시 광산구 사암로383번길 39 1층 107호(하남동)"
    },
    {
      "telNo" : "010-8612-4565",
      "lon" : "126.899502753936",
      "releaseDate" : "",
      "operateTime" : "",
      "dropFlag" : "N",
      "lat" : "35.1433751891428",
      "name" : "광주 민오토바이 고샵[민오토바이]",
      "serialNumber" : "102025",
      "defaultImgUrl" : "https:\/\/gf.dotstation.kr\/gogoro_station\/0\/basic_07f4807c90fff9f88dc6a833a12dcaac.jpg",
      "address" : "광주광역시 남구 월산로 58 (월산동)"
    },
    {
      "telNo" : "010-5758-5282",
      "lon" : "126.930825369755",
      "releaseDate" : "",
      "operateTime" : "",
      "dropFlag" : "N",
      "lat" : "35.1689334573977",
      "name" : "광주 바이크세상 고샵[바이크세상]",
      "serialNumber" : "100155",
      "defaultImgUrl" : "https:\/\/gf.dotstation.kr\/gogoro_station\/0\/basic_07f4807c90fff9f88dc6a833a12dcaac.jpg",
      "address" : "광주광역시 북구 서방로 172 "
    },
    {
      "releaseDate" : "",
      "dropFlag" : "N",
      "telNo" : "010-4255-1496",
      "defaultImgUrl" : "https:\/\/gf.dotstation.kr\/gogoro_station\/0\/basic_07f4807c90fff9f88dc6a833a12dcaac.jpg",
      "operateTime" : "",
      "serialNumber" : "101953",
      "lat" : "35.1741722435074",
      "lon" : "126.895396451156",
      "name" : "광주 세븐모터스 고샵[세븐모터스]",
      "address" : "광주광역시 북구 설죽로 159 (신안동)"
    },
    {
      "releaseDate" : "",
      "dropFlag" : "N",
      "telNo" : "010-4059-9442",
      "defaultImgUrl" : "https:\/\/gf.dotstation.kr\/gogoro_station\/0\/basic_07f4807c90fff9f88dc6a833a12dcaac.jpg",
      "operateTime" : "",
      "serialNumber" : "100154",
      "lat" : "35.1526962057164",
      "lon" : "126.918793783418",
      "name" : "광주 스토리 고샵[바이크스토리]",
      "address" : "광주광역시 동구 중앙로 230-1 "
    },
    {
      "releaseDate" : "",
      "dropFlag" : "N",
      "telNo" : "010-4059-9442",
      "defaultImgUrl" : "https:\/\/gf.dotstation.kr\/gogoro_station\/0\/basic_07f4807c90fff9f88dc6a833a12dcaac.jpg",
      "operateTime" : "",
      "serialNumber" : "100154",
      "lat" : "35.1526962057164",
      "lon" : "126.918793783418",
      "name" : "광주 스토리 고샵[바이크스토리]",
      "address" : "광주광역시 동구 중앙로 230-1 "
    },
    {
      "releaseDate" : "",
      "dropFlag" : "N",
      "telNo" : "010-8621-7162",
      "defaultImgUrl" : "https:\/\/gf.dotstation.kr\/gogoro_station\/0\/basic_07f4807c90fff9f88dc6a833a12dcaac.jpg",
      "operateTime" : "",
      "serialNumber" : "101821",
      "lat" : "35.1511179415301",
      "lon" : "126.928705684392",
      "name" : "광주 승하 고샵[승하오토바이]",
      "address" : "광주광역시 동구 동명로 75-1 (지산동) 1층"
    },
    {
      "releaseDate" : "",
      "dropFlag" : "N",
      "telNo" : "010-9179-3782",
      "defaultImgUrl" : "https:\/\/gf.dotstation.kr\/gogoro_station\/0\/basic_07f4807c90fff9f88dc6a833a12dcaac.jpg",
      "operateTime" : "",
      "serialNumber" : "101947",
      "lat" : "35.158412153894",
      "lon" : "126.927717122156",
      "name" : "광주 에어리얼스튜디오 고샵[에어리얼 스튜디오 (Aerial Studio)]",
      "address" : "광주광역시 동구 무등로 420-1 1층 (산수동)"
    },
    {
      "releaseDate" : "",
      "dropFlag" : "N",
      "telNo" : "010-8584-8285",
      "defaultImgUrl" : "https:\/\/gf.dotstation.kr\/gogoro_station\/0\/basic_07f4807c90fff9f88dc6a833a12dcaac.jpg",
      "operateTime" : "",
      "serialNumber" : "101886",
      "lat" : "35.1998282340875",
      "lon" : "126.875045170944",
      "name" : "광주 으뜸 고샵[으뜸오토바이]",
      "address" : "광주광역시 북구 양산제로 3 상가동 102호,103호(양산동,양산동 한국타파트)"
    },
    {
      "releaseDate" : "",
      "dropFlag" : "N",
      "telNo" : "010-4600-9565",
      "defaultImgUrl" : "https:\/\/gf.dotstation.kr\/gogoro_station\/0\/basic_07f4807c90fff9f88dc6a833a12dcaac.jpg",
      "operateTime" : "",
      "serialNumber" : "101881",
      "lat" : "35.1463213437122",
      "lon" : "126.856647541021",
      "name" : "광주 타이거 고샵[타이거모터스]",
      "address" : "광주광역시 서구 운천로 153 (쌍촌동)1층"
    },
    {
      "releaseDate" : "",
      "dropFlag" : "N",
      "telNo" : "010-3646-5125",
      "defaultImgUrl" : "https:\/\/gf.dotstation.kr\/gogoro_station\/0\/basic_07f4807c90fff9f88dc6a833a12dcaac.jpg",
      "operateTime" : "",
      "serialNumber" : "101961",
      "lat" : "35.1519078544118",
      "lon" : "126.872336735549",
      "name" : "광주 하나모터스 고샵[하나모터스]",
      "address" : "광주광역시 서구 상무대로 1009 (내방동)"
    },
    {
      "releaseDate" : "",
      "dropFlag" : "N",
      "telNo" : "010-6333-8918",
      "defaultImgUrl" : "https:\/\/gf.dotstation.kr\/gogoro_station\/0\/basic_07f4807c90fff9f88dc6a833a12dcaac.jpg",
      "operateTime" : "",
      "serialNumber" : "101791",
      "lat" : "35.1862289947027",
      "lon" : "126.836604494816",
      "name" : "광주광산수고샵[수바이크]",
      "address" : "광주광역시 광산구 수등로243번길 28-22 (신가동) 102호"
    },
    {
      "releaseDate" : "",
      "dropFlag" : "N",
      "telNo" : "010-5612-1346",
      "defaultImgUrl" : "https:\/\/gf.dotstation.kr\/gogoro_station\/0\/basic_07f4807c90fff9f88dc6a833a12dcaac.jpg",
      "operateTime" : "",
      "serialNumber" : "101788",
      "lat" : "35.211575850285",
      "lon" : "126.839441175549",
      "name" : "광주광산첨단고샵[첨단오토바이]",
      "address" : "광주광역시 광산구 첨단중앙로67번길 60 (월계동)"
    },
    {
      "releaseDate" : "",
      "dropFlag" : "N",
      "telNo" : "",
      "defaultImgUrl" : "https:\/\/gf.dotstation.kr\/gogoro_station\/0\/basic_07f4807c90fff9f88dc6a833a12dcaac.jpg",
      "operateTime" : "",
      "serialNumber" : "101739",
      "lat" : "35.1728330846803",
      "lon" : "126.91677202785",
      "name" : "광주북구미성고샵[미성오토바이]",
      "address" : "광주광역시 북구 서방로 36 (중흥동)"
    },
    {
      "releaseDate" : "",
      "dropFlag" : "N",
      "telNo" : "010-3607-8184",
      "defaultImgUrl" : "https:\/\/gf.dotstation.kr\/gogoro_station\/0\/basic_07f4807c90fff9f88dc6a833a12dcaac.jpg",
      "operateTime" : "",
      "serialNumber" : "100156",
      "lat" : "35.1941571324659",
      "lon" : "126.904036725344",
      "name" : "광주북구질주고샵[질주바이크나라]",
      "address" : "광주광역시 북구 우치로 329 "
    },
    {
      "releaseDate" : "",
      "dropFlag" : "N",
      "telNo" : "",
      "defaultImgUrl" : "https:\/\/gf.dotstation.kr\/gogoro_station\/0\/basic_07f4807c90fff9f88dc6a833a12dcaac.jpg",
      "operateTime" : "",
      "serialNumber" : "101729",
      "lat" : "37.3688380478779",
      "lon" : "126.944197376048",
      "name" : "군포 닷스테이션 고샵[닷스테이션 군포점]",
      "address" : "경기도 군포시 군포로 711 (금정동,신우빌딩) 1층"
    },
    {
      "releaseDate" : "",
      "dropFlag" : "N",
      "telNo" : "010-5633-5756",
      "defaultImgUrl" : "https:\/\/gf.dotstation.kr\/gogoro_station\/0\/basic_07f4807c90fff9f88dc6a833a12dcaac.jpg",
      "operateTime" : "09:00~18:00",
      "serialNumber" : "101712",
      "lat" : "35.2243643270224",
      "lon" : "129.092576284362",
      "name" : "금정 디씨즈 바이크[금정 디씨즈 바이크]",
      "address" : "부산광역시 금정구 가마실로 34-1 (부곡동)"
    },
    {
      "releaseDate" : "",
      "dropFlag" : "N",
      "telNo" : "010-3446-2848",
      "defaultImgUrl" : "https:\/\/gf.dotstation.kr\/gogoro_station\/0\/basic_07f4807c90fff9f88dc6a833a12dcaac.jpg",
      "operateTime" : "09:00~18:00",
      "serialNumber" : "101716",
      "lat" : "35.2001304051202",
      "lon" : "129.206351015441",
      "name" : "단디바이크[단디바이크]",
      "address" : "부산광역시 기장군 기장읍 기장대로 31 (내리)"
    },
    {
      "releaseDate" : "",
      "dropFlag" : "Y",
      "telNo" : "010-4611-5297",
      "defaultImgUrl" : "https:\/\/gf.dotstation.kr\/gogoro_station\/0\/basic_07f4807c90fff9f88dc6a833a12dcaac.jpg",
      "operateTime" : "09:00~18:00",
      "serialNumber" : "101690",
      "lat" : "35.1309536339382",
      "lon" : "129.101183999582",
      "name" : "닷스테이션 (대연지점)[닷스테이션 (대연지점)]",
      "address" : "부산광역시 남구 조각공원로 43 (대연동)"
    },
    {
      "releaseDate" : "",
      "dropFlag" : "Y",
      "telNo" : "010-5000-9631",
      "defaultImgUrl" : "https:\/\/gf.dotstation.kr\/gogoro_station\/0\/basic_07f4807c90fff9f88dc6a833a12dcaac.jpg",
      "operateTime" : "09:00~18:00",
      "serialNumber" : "101701",
      "lat" : "35.1827971588075",
      "lon" : "129.083459005128",
      "name" : "닷스테이션 (연제점)[닷스테이션 (연제점)]",
      "address" : "부산광역시 연제구 월드컵대로 94 (연산동)"
    },
    {
      "releaseDate" : "",
      "dropFlag" : "N",
      "telNo" : "010-4908-4444",
      "defaultImgUrl" : "https:\/\/gf.dotstation.kr\/gogoro_station\/0\/basic_07f4807c90fff9f88dc6a833a12dcaac.jpg",
      "operateTime" : "",
      "serialNumber" : "101687",
      "lat" : "35.8200786441584",
      "lon" : "128.753917427832",
      "name" : "닷스테이션 경산대리점[닷 스테이션]",
      "address" : "경상북도 경산시 원효로32길 5 (사동) 2층"
    },
    {
      "releaseDate" : "",
      "dropFlag" : "N",
      "telNo" : "010-3939-0503",
      "defaultImgUrl" : "https:\/\/gf.dotstation.kr\/gogoro_station\/0\/basic_07f4807c90fff9f88dc6a833a12dcaac.jpg",
      "operateTime" : "",
      "serialNumber" : "101018",
      "lat" : "37.4824907783417",
      "lon" : "126.946184167543",
      "name" : "닷스테이션 관악대리점[주식회사 다연디에스에이 관악지점]",
      "address" : "서울특별시 관악구 양녕로 5 101호 (봉천동)"
    },
    {
      "releaseDate" : "",
      "dropFlag" : "N",
      "telNo" : "010-3939-0503",
      "defaultImgUrl" : "https:\/\/gf.dotstation.kr\/gogoro_station\/0\/basic_07f4807c90fff9f88dc6a833a12dcaac.jpg",
      "operateTime" : "",
      "serialNumber" : "101018",
      "lat" : "37.4824907783417",
      "lon" : "126.946184167543",
      "name" : "닷스테이션 관악대리점[주식회사 다연디에스에이 관악지점]",
      "address" : "서울특별시 관악구 양녕로 5 101호 (봉천동)"
    },
    {
      "releaseDate" : "",
      "dropFlag" : "N",
      "telNo" : "",
      "defaultImgUrl" : "https:\/\/gf.dotstation.kr\/gogoro_station\/0\/basic_07f4807c90fff9f88dc6a833a12dcaac.jpg",
      "operateTime" : "",
      "serialNumber" : "101358",
      "lat" : "37.5955322785698",
      "lon" : "127.140459429417",
      "name" : "닷스테이션 구리대리점[와이 팩토리]",
      "address" : "경기도 구리시 원수택로 37 (수택동)"
    },
    {
      "operateTime" : "",
      "releaseDate" : "",
      "name" : "닷스테이션 군포대리점[주식회사 지더블유컴퍼니]",
      "address" : "경기도 군포시 금산로 7 2층",
      "dropFlag" : "N",
      "lat" : "37.3631588425749",
      "lon" : "126.940969037523",
      "serialNumber" : "100865",
      "telNo" : "010-4373-1139",
      "defaultImgUrl" : "https:\/\/gf.dotstation.kr\/gogoro_station\/0\/basic_07f4807c90fff9f88dc6a833a12dcaac.jpg"
    },
    {
      "operateTime" : "",
      "releaseDate" : "",
      "name" : "닷스테이션 군포대리점[주식회사 지더블유컴퍼니]",
      "address" : "경기도 군포시 금산로 7 2층",
      "dropFlag" : "N",
      "lat" : "37.3631588425749",
      "lon" : "126.940969037523",
      "serialNumber" : "100865",
      "telNo" : "010-4373-1139",
      "defaultImgUrl" : "https:\/\/gf.dotstation.kr\/gogoro_station\/0\/basic_07f4807c90fff9f88dc6a833a12dcaac.jpg"
    },
    {
      "operateTime" : "10:00~20:00,(토\/일)10:00~18:00",
      "releaseDate" : "",
      "name" : "닷스테이션 금천대리점[닷스테이션 금천]",
      "address" : "서울특별시 금천구 시흥대로 427 1층",
      "dropFlag" : "N",
      "lat" : "37.4716490468666",
      "lon" : "126.897779055882",
      "serialNumber" : "100423",
      "telNo" : "010-9493-2717",
      "defaultImgUrl" : "https:\/\/gf.dotstation.kr\/gogoro_station\/0\/basic_07f4807c90fff9f88dc6a833a12dcaac.jpg"
    },
    {
      "operateTime" : "",
      "releaseDate" : "",
      "name" : "닷스테이션 대구동구대리점(영광모터스)[영광모터스]",
      "address" : "대구광역시 동구 율하서로 66 (율하동)",
      "dropFlag" : "N",
      "lat" : "35.8639034390707",
      "lon" : "128.690308677201",
      "serialNumber" : "100808",
      "telNo" : "",
      "defaultImgUrl" : "https:\/\/gf.dotstation.kr\/gogoro_station\/0\/basic_07f4807c90fff9f88dc6a833a12dcaac.jpg"
    },
    {
      "operateTime" : "",
      "releaseDate" : "",
      "name" : "닷스테이션 부천점[닷스테이션 부천점]",
      "address" : "경기도 부천시 장말로 333 (심곡동) 1층",
      "dropFlag" : "N",
      "lat" : "37.4908562531343",
      "lon" : "126.77904012527",
      "serialNumber" : "101039",
      "telNo" : "010-6771-3322",
      "defaultImgUrl" : "https:\/\/gf.dotstation.kr\/gogoro_station\/0\/basic_07f4807c90fff9f88dc6a833a12dcaac.jpg"
    },
    {
      "operateTime" : "",
      "releaseDate" : "",
      "name" : "닷스테이션 분당대리점[주식회사 향연]",
      "address" : "경기도 성남시 분당구 내정로119번길 23 ",
      "dropFlag" : "N",
      "lat" : "37.3723151268414",
      "lon" : "127.113354991502",
      "serialNumber" : "101197",
      "telNo" : "",
      "defaultImgUrl" : "https:\/\/gf.dotstation.kr\/gogoro_station\/0\/basic_07f4807c90fff9f88dc6a833a12dcaac.jpg"
    },
    {
      "operateTime" : "",
      "releaseDate" : "",
      "name" : "닷스테이션 분당대리점[주식회사 향연]",
      "address" : "경기도 성남시 분당구 내정로119번길 23 ",
      "dropFlag" : "N",
      "lat" : "37.3723151268414",
      "lon" : "127.113354991502",
      "serialNumber" : "101197",
      "telNo" : "",
      "defaultImgUrl" : "https:\/\/gf.dotstation.kr\/gogoro_station\/0\/basic_07f4807c90fff9f88dc6a833a12dcaac.jpg"
    },
    {
      "operateTime" : "",
      "releaseDate" : "",
      "name" : "닷스테이션 분당대리점[주식회사 향연]",
      "address" : "경기도 성남시 분당구 내정로119번길 23 ",
      "dropFlag" : "N",
      "lat" : "37.3723151268414",
      "lon" : "127.113354991502",
      "serialNumber" : "101197",
      "telNo" : "",
      "defaultImgUrl" : "https:\/\/gf.dotstation.kr\/gogoro_station\/0\/basic_07f4807c90fff9f88dc6a833a12dcaac.jpg"
    },
    {
      "operateTime" : "",
      "releaseDate" : "",
      "name" : "닷스테이션 서울송파대리점[주식회사 송파비에스]",
      "address" : "서울특별시 송파구 송파대로 404 1층 (송파동 우일빌딩)",
      "dropFlag" : "N",
      "lat" : "37.5033675337152",
      "lon" : "127.109316641637",
      "serialNumber" : "100115",
      "telNo" : "010-5966-6066",
      "defaultImgUrl" : "https:\/\/gf.dotstation.kr\/gogoro_station\/0\/basic_07f4807c90fff9f88dc6a833a12dcaac.jpg"
    },
    {
      "operateTime" : "",
      "releaseDate" : "",
      "name" : "닷스테이션 안산대리점[주식회사 탄탄]",
      "address" : "경기도 안산시 단원구 화정로 73 ",
      "dropFlag" : "N",
      "lat" : "37.3315877471276",
      "lon" : "126.820826812058",
      "serialNumber" : "101391",
      "telNo" : "010-3652-0329",
      "defaultImgUrl" : "https:\/\/gf.dotstation.kr\/gogoro_station\/0\/basic_07f4807c90fff9f88dc6a833a12dcaac.jpg"
    },
    {
      "operateTime" : "",
      "releaseDate" : "",
      "name" : "닷스테이션 안산대리점[주식회사 탄탄]",
      "address" : "경기도 안산시 단원구 화정로 73 ",
      "dropFlag" : "N",
      "lat" : "37.3315877471276",
      "lon" : "126.820826812058",
      "serialNumber" : "101391",
      "telNo" : "010-3652-0329",
      "defaultImgUrl" : "https:\/\/gf.dotstation.kr\/gogoro_station\/0\/basic_07f4807c90fff9f88dc6a833a12dcaac.jpg"
    },
    {
      "operateTime" : "",
      "releaseDate" : "",
      "name" : "닷스테이션 천안점[주식회사 엠디]",
      "address" : "충청남도 천안시 서북구 백석로 247 (성정동,더갤러리) 1층",
      "dropFlag" : "N",
      "lat" : "36.818705043895",
      "lon" : "127.137120672247",
      "serialNumber" : "101328",
      "telNo" : "010-4739-1119",
      "defaultImgUrl" : "https:\/\/gf.dotstation.kr\/gogoro_station\/0\/basic_07f4807c90fff9f88dc6a833a12dcaac.jpg"
    },
    {
      "operateTime" : "",
      "releaseDate" : "",
      "name" : "닷스테이션 청주대리점[주식회사 로지올]",
      "address" : "충청북도 청주시 서원구 사직대로 129 (사창동) 1층",
      "dropFlag" : "N",
      "lat" : "36.6352724954051",
      "lon" : "127.461653988792",
      "serialNumber" : "101208",
      "telNo" : "",
      "defaultImgUrl" : "https:\/\/gf.dotstation.kr\/gogoro_station\/0\/basic_07f4807c90fff9f88dc6a833a12dcaac.jpg"
    },
    {
      "operateTime" : "",
      "releaseDate" : "",
      "name" : "닷스테이션 청주점[띵동(통합딜리버리)]",
      "address" : "충청북도 청주시 서원구 사직대로129번길 3 (사창동)",
      "dropFlag" : "N",
      "lat" : "36.6352615650289",
      "lon" : "127.461777140365",
      "serialNumber" : "101526",
      "telNo" : "010-3333-2135",
      "defaultImgUrl" : "https:\/\/gf.dotstation.kr\/gogoro_station\/0\/basic_07f4807c90fff9f88dc6a833a12dcaac.jpg"
    },
    {
      "operateTime" : "",
      "releaseDate" : "",
      "name" : "닷스테이션야탑대리점[주식회사 로지올]",
      "address" : "경기도 성남시 분당구 판교로610번길 7 ",
      "dropFlag" : "N",
      "lat" : "37.4070017835767",
      "lon" : "127.140094625833",
      "serialNumber" : "101167",
      "telNo" : "",
      "defaultImgUrl" : "https:\/\/gf.dotstation.kr\/gogoro_station\/0\/basic_07f4807c90fff9f88dc6a833a12dcaac.jpg"
    },
    {
      "operateTime" : "",
      "releaseDate" : "",
      "name" : "대구 감삼 고샵[닷스테이션 대구감삼점]",
      "address" : "대구광역시 달서구 당산로 130 (성당동) 1층",
      "dropFlag" : "N",
      "lat" : "35.8486749791166",
      "lon" : "128.546462017941",
      "serialNumber" : "101533",
      "telNo" : "010-9456-8388",
      "defaultImgUrl" : "https:\/\/gf.dotstation.kr\/gogoro_station\/0\/basic_07f4807c90fff9f88dc6a833a12dcaac.jpg"
    },
    {
      "operateTime" : "",
      "releaseDate" : "",
      "name" : "대구 경대 고샵[생각대로]",
      "address" : "대구광역시 동구 경대로 62 ",
      "dropFlag" : "N",
      "lat" : "35.8863191505556",
      "lon" : "128.615839501396",
      "serialNumber" : "100561",
      "telNo" : "010-4524-5086",
      "defaultImgUrl" : "https:\/\/gf.dotstation.kr\/gogoro_station\/0\/basic_07f4807c90fff9f88dc6a833a12dcaac.jpg"
    },
    {
      "operateTime" : "",
      "releaseDate" : "",
      "name" : "대구 대림 고샵[대림오토바이]",
      "address" : "대구광역시 북구 태암로 15-1 (태전동) 1층",
      "dropFlag" : "N",
      "lat" : "35.9287889159193",
      "lon" : "128.549732627669",
      "serialNumber" : "101837",
      "telNo" : "010-7931-9399",
      "defaultImgUrl" : "https:\/\/gf.dotstation.kr\/gogoro_station\/0\/basic_07f4807c90fff9f88dc6a833a12dcaac.jpg"
    },
    {
      "operateTime" : "",
      "releaseDate" : "",
      "name" : "대구 대영 고샵[대영오토바이]",
      "address" : "대구광역시 수성구 희망로 197 (황금동)",
      "dropFlag" : "N",
      "lat" : "35.8466347385796",
      "lon" : "128.620427968815",
      "serialNumber" : "101834",
      "telNo" : "010-5396-4011",
      "defaultImgUrl" : "https:\/\/gf.dotstation.kr\/gogoro_station\/0\/basic_07f4807c90fff9f88dc6a833a12dcaac.jpg"
    },
    {
      "operateTime" : "",
      "releaseDate" : "",
      "name" : "대구 더블에이치 고샵[더블에이치바이크]",
      "address" : "대구광역시 북구 오봉로 3 (노원동2가)",
      "dropFlag" : "N",
      "lat" : "35.8881849530703",
      "lon" : "128.575874801073",
      "serialNumber" : "101787",
      "telNo" : "010 3631 4366",
      "defaultImgUrl" : "https:\/\/gf.dotstation.kr\/gogoro_station\/0\/basic_07f4807c90fff9f88dc6a833a12dcaac.jpg"
    },
    {
      "operateTime" : "",
      "releaseDate" : "",
      "name" : "대구 드림바이크 고샵[드림바이크]",
      "address" : "대구광역시 달서구 선원로 18 (신당동) 1층",
      "dropFlag" : "N",
      "lat" : "35.8590644479538",
      "lon" : "128.494048374957",
      "serialNumber" : "101810",
      "telNo" : "",
      "defaultImgUrl" : "https:\/\/gf.dotstation.kr\/gogoro_station\/0\/basic_07f4807c90fff9f88dc6a833a12dcaac.jpg"
    },
    {
      "operateTime" : "",
      "name" : "대구 만촌 고샵[생각대로 범어만촌]",
      "defaultImgUrl" : "https:\/\/gf.dotstation.kr\/gogoro_station\/0\/basic_07f4807c90fff9f88dc6a833a12dcaac.jpg",
      "serialNumber" : "101532",
      "lon" : "128.645910797953",
      "lat" : "35.8746662948115",
      "telNo" : "010-8637-4572",
      "dropFlag" : "N",
      "address" : "대구광역시 수성구 무열로 187 (만촌동)",
      "releaseDate" : ""
    },
    {
      "operateTime" : "",
      "name" : "대구 모토크루 고샵[모토크루]",
      "defaultImgUrl" : "https:\/\/gf.dotstation.kr\/gogoro_station\/0\/basic_07f4807c90fff9f88dc6a833a12dcaac.jpg",
      "serialNumber" : "101823",
      "lon" : "128.574498290999",
      "lat" : "35.8791849025142",
      "telNo" : "010-3539-9846",
      "dropFlag" : "N",
      "address" : "대구광역시 서구 북비산로 375 (비산동) 1층, 2층 전체",
      "releaseDate" : ""
    },
    {
      "operateTime" : "",
      "name" : "대구 바이크마스터 고샵[바이크마스터]",
      "defaultImgUrl" : "https:\/\/gf.dotstation.kr\/gogoro_station\/0\/basic_07f4807c90fff9f88dc6a833a12dcaac.jpg",
      "serialNumber" : "101889",
      "lon" : "128.612521895756",
      "lat" : "35.8818334530119",
      "telNo" : "010-5675-6566",
      "dropFlag" : "N",
      "address" : "대구광역시 동구 대현로 123 (신암동)",
      "releaseDate" : ""
    },
    {
      "operateTime" : "10:00~19:00, (토\/일 휴무)",
      "name" : "대구 바이크뱅크상인 고샵[바이크뱅크 상인점]",
      "defaultImgUrl" : "https:\/\/gf.dotstation.kr\/gogoro_station\/0\/basic_07f4807c90fff9f88dc6a833a12dcaac.jpg",
      "serialNumber" : "100539",
      "lon" : "128.518954858277",
      "lat" : "35.812758245194",
      "telNo" : "010-6495-7678",
      "dropFlag" : "N",
      "address" : "대구광역시 달서구 월배로 38 ",
      "releaseDate" : ""
    },
    {
      "operateTime" : "10:00~19:00, (토\/일 휴무)",
      "name" : "대구 바이크뱅크상인 고샵[바이크뱅크 상인점]",
      "defaultImgUrl" : "https:\/\/gf.dotstation.kr\/gogoro_station\/0\/basic_07f4807c90fff9f88dc6a833a12dcaac.jpg",
      "serialNumber" : "100539",
      "lon" : "128.518954858277",
      "lat" : "35.812758245194",
      "telNo" : "010-6495-7678",
      "dropFlag" : "N",
      "address" : "대구광역시 달서구 월배로 38 ",
      "releaseDate" : ""
    },
    {
      "operateTime" : "",
      "name" : "대구 바이크엘 고샵[바이크 엘]",
      "defaultImgUrl" : "https:\/\/gf.dotstation.kr\/gogoro_station\/0\/basic_07f4807c90fff9f88dc6a833a12dcaac.jpg",
      "serialNumber" : "101720",
      "lon" : "128.568367294906",
      "lat" : "35.8614573897722",
      "telNo" : "010-5595-4961",
      "dropFlag" : "N",
      "address" : "대구광역시 서구 달구벌대로373길 1 (내당동) 1층",
      "releaseDate" : ""
    },
    {
      "operateTime" : "",
      "name" : "대구 바이크타운 고샵[바이크타운]",
      "defaultImgUrl" : "https:\/\/gf.dotstation.kr\/gogoro_station\/0\/basic_07f4807c90fff9f88dc6a833a12dcaac.jpg",
      "serialNumber" : "101901",
      "lon" : "128.567255736268",
      "lat" : "35.8421638733406",
      "telNo" : "010-3153-0384",
      "dropFlag" : "N",
      "address" : "대구광역시 남구 대명복개로 157 (대명동)",
      "releaseDate" : ""
    },
    {
      "operateTime" : "",
      "name" : "대구 보경모터스 고샵[보경모터스]",
      "defaultImgUrl" : "https:\/\/gf.dotstation.kr\/gogoro_station\/0\/basic_07f4807c90fff9f88dc6a833a12dcaac.jpg",
      "serialNumber" : "101814",
      "lon" : "128.584165096023",
      "lat" : "35.8717993330887",
      "telNo" : "010-5147-0551",
      "dropFlag" : "N",
      "address" : "대구광역시 중구 국채보상로101길 28 (인교동)",
      "releaseDate" : ""
    },
    {
      "operateTime" : "",
      "name" : "대구 북구 피트인 고샵[피트-인 (PIT-IN)]",
      "defaultImgUrl" : "https:\/\/gf.dotstation.kr\/gogoro_station\/0\/basic_07f4807c90fff9f88dc6a833a12dcaac.jpg",
      "serialNumber" : "101797",
      "lon" : "128.588739130744",
      "lat" : "35.8994402791955",
      "telNo" : "",
      "dropFlag" : "N",
      "address" : "대구광역시 북구 침산로 261-1 (침산동)",
      "releaseDate" : ""
    },
    {
      "operateTime" : "",
      "name" : "대구 수성 고샵[닷스테이션 수성점]",
      "defaultImgUrl" : "https:\/\/gf.dotstation.kr\/gogoro_station\/0\/basic_07f4807c90fff9f88dc6a833a12dcaac.jpg",
      "serialNumber" : "101347",
      "lon" : "128.617103788833",
      "lat" : "35.8513724113597",
      "telNo" : "010-5528-7777",
      "dropFlag" : "N",
      "address" : "대구광역시 수성구 들안로 242 (수성동3가) 1층",
      "releaseDate" : ""
    },
    {
      "operateTime" : "",
      "name" : "대구 신기 고샵[신기오토바이]",

      "defaultImgUrl" : "https:\/\/gf.dotstation.kr\/gogoro_station\/0\/basic_07f4807c90fff9f88dc6a833a12dcaac.jpg",
      "serialNumber" : "101836",
      "lon" : "128.713339514336",
      "lat" : "35.8779222285713",
      "telNo" : "010-6236-4447",
      "dropFlag" : "N",
      "address" : "대구광역시 동구 이노밸리로26길 24 (각산동,정우빌딩)",
      "releaseDate" : ""
    },
    {
      "operateTime" : "",
      "name" : "대구 신우 고샵[신우오토바이]",
      "defaultImgUrl" : "https:\/\/gf.dotstation.kr\/gogoro_station\/0\/basic_07f4807c90fff9f88dc6a833a12dcaac.jpg",
      "serialNumber" : "100701",
      "lon" : "128.571022385673",
      "lat" : "35.8397177995522",
      "telNo" : "",
      "dropFlag" : "N",
      "address" : "대구광역시 남구 대명로25길 17-19 ",
      "releaseDate" : ""
    },
    {
      "operateTime" : "",
      "name" : "대구 알에스모토 고샵[알에스모토]",
      "defaultImgUrl" : "https:\/\/gf.dotstation.kr\/gogoro_station\/0\/basic_07f4807c90fff9f88dc6a833a12dcaac.jpg",
      "serialNumber" : "100188",
      "lon" : "128.615088217716",
      "lat" : "35.8515281197863",
      "telNo" : "010-7565-1532",
      "dropFlag" : "N",
      "address" : "대구광역시 수성구 수성로58길 32 1층",
      "releaseDate" : ""
    },
    {
      "operateTime" : "",
      "name" : "대구 영덕오토바이 고샵[영덕오토바이]",
      "defaultImgUrl" : "https:\/\/gf.dotstation.kr\/gogoro_station\/0\/basic_07f4807c90fff9f88dc6a833a12dcaac.jpg",
      "serialNumber" : "101954",
      "lon" : "128.610747661013",
      "lat" : "35.8345562991206",
      "telNo" : "010-2552-9243",
      "dropFlag" : "N",
      "address" : "대구광역시 수성구 상화로 34 1층(상동)",
      "releaseDate" : ""
    },
    {
      "operateTime" : "",
      "name" : "대구 오렌지바이크 고샵[오렌지바이크]",
      "defaultImgUrl" : "https:\/\/gf.dotstation.kr\/gogoro_station\/0\/basic_07f4807c90fff9f88dc6a833a12dcaac.jpg",
      "serialNumber" : "101813",
      "lon" : "128.573819078808",
      "lat" : "35.8556118899172",
      "telNo" : "010-4444-0176",
      "dropFlag" : "N",
      "address" : "대구광역시 달서구 성당로 261 (두류동)",
      "releaseDate" : ""
    },
    {
      "operateTime" : "",
      "name" : "대구 오토라이더스 고샵[오토라이더스]",
      "defaultImgUrl" : "https:\/\/gf.dotstation.kr\/gogoro_station\/0\/basic_07f4807c90fff9f88dc6a833a12dcaac.jpg",
      "serialNumber" : "100181",
      "lon" : "128.554835748295",
      "lat" : "35.9375590428236",
      "telNo" : "010-2504-4562",
      "dropFlag" : "N",
      "address" : "대구광역시 북구 대천로 51 (읍내동)",
      "releaseDate" : ""
    },
    {
      "operateTime" : "",
      "name" : "대구 이씨바이크 고샵[위 팩토리]",
      "defaultImgUrl" : "https:\/\/gf.dotstation.kr\/gogoro_station\/0\/basic_07f4807c90fff9f88dc6a833a12dcaac.jpg",
      "serialNumber" : "101824",
      "lon" : "128.690308677201",
      "lat" : "35.8639034390707",
      "telNo" : "",
      "dropFlag" : "N",
      "address" : "대구광역시 동구 율하서로 66 (율하동)",
      "releaseDate" : ""
    },
    {
      "operateTime" : "",
      "name" : "대구 지범모터스고샵[지산범물오토바이]",
      "defaultImgUrl" : "https:\/\/gf.dotstation.kr\/gogoro_station\/0\/basic_07f4807c90fff9f88dc6a833a12dcaac.jpg",
      "serialNumber" : "100190",
      "lon" : "128.632118725484",
      "lat" : "35.8270175735962",
      "telNo" : "010-2975-9980",
      "dropFlag" : "N",
      "address" : "대구광역시 수성구 지산로11길 16-12 ",
      "releaseDate" : ""
    },
    {
      "operateTime" : "",
      "name" : "대구 철이모터스 고샵[철이모터샵]",
      "defaultImgUrl" : "https:\/\/gf.dotstation.kr\/gogoro_station\/0\/basic_07f4807c90fff9f88dc6a833a12dcaac.jpg",
      "serialNumber" : "100182",
      "lon" : "128.549627267116",
      "lat" : "35.9399200783754",
      "telNo" : "010-9407-3299",
      "dropFlag" : "N",
      "address" : "대구광역시 북구 칠곡중앙대로 495 1층",
      "releaseDate" : ""
    },
    {
      "operateTime" : "",
      "name" : "대구 칠곡 고샵[쇼핑마켓]",
      "defaultImgUrl" : "https:\/\/gf.dotstation.kr\/gogoro_station\/0\/basic_07f4807c90fff9f88dc6a833a12dcaac.jpg",
      "serialNumber" : "101301",
      "lon" : "128.552061574969",
      "lat" : "35.9271957942669",
      "telNo" : "010-4260-1333",
      "dropFlag" : "N",
      "address" : "대구광역시 북구 팔거천동로 26 ",
      "releaseDate" : ""
    },
    {
      "operateTime" : "",
      "name" : "대구 칠곡 고샵[쇼핑마켓]",
      "defaultImgUrl" : "https:\/\/gf.dotstation.kr\/gogoro_station\/0\/basic_07f4807c90fff9f88dc6a833a12dcaac.jpg",
      "serialNumber" : "101301",
      "lon" : "128.552061574969",
      "lat" : "35.9271957942669",
      "telNo" : "010-4260-1333",
      "dropFlag" : "N",
      "address" : "대구광역시 북구 팔거천동로 26 ",
      "releaseDate" : ""
    },
    {
      "address" : "대구광역시 달서구 선원로 65 1층(신당동)",
      "defaultImgUrl" : "https:\/\/gf.dotstation.kr\/gogoro_station\/0\/basic_07f4807c90fff9f88dc6a833a12dcaac.jpg",
      "operateTime" : "",
      "releaseDate" : "",
      "lat" : "35.8593973947446",
      "dropFlag" : "N",
      "lon" : "128.499554483385",
      "name" : "대구 캡틴 고샵[캡틴(배달대행)]",
      "serialNumber" : "101914",
      "telNo" : "010-9494-4550"
    },
    {
      "address" : "대구광역시 남구 성당로 102 (대명동)",
      "defaultImgUrl" : "https:\/\/gf.dotstation.kr\/gogoro_station\/0\/basic_07f4807c90fff9f88dc6a833a12dcaac.jpg",
      "operateTime" : "",
      "releaseDate" : "",
      "lat" : "35.8451490161762",
      "dropFlag" : "N",
      "lon" : "128.564615317748",
      "name" : "대구남구스피드 고샵[스피드모토샵]",
      "serialNumber" : "101785",
      "telNo" : "010-3828-8889"
    },
    {
      "address" : "대구광역시 달성군 다사읍 세천북로18길 50-2 (세천리)",
      "defaultImgUrl" : "https:\/\/gf.dotstation.kr\/gogoro_station\/0\/basic_07f4807c90fff9f88dc6a833a12dcaac.jpg",
      "operateTime" : "",
      "releaseDate" : "",
      "lat" : "35.880081661523",
      "dropFlag" : "N",
      "lon" : "128.472892614203",
      "name" : "대구식스팩토리고샵[식스팩토리]",
      "serialNumber" : "101790",
      "telNo" : "010-8958-8222"
    },
    {
      "address" : "대구광역시 남구 명덕로26길 23 (대명동) 1~2 층",
      "defaultImgUrl" : "https:\/\/gf.dotstation.kr\/gogoro_station\/0\/basic_07f4807c90fff9f88dc6a833a12dcaac.jpg",
      "operateTime" : "",
      "releaseDate" : "",
      "lat" : "35.8552851100115",
      "dropFlag" : "N",
      "lon" : "128.584453096276",
      "name" : "대구의성고샵[의성모터스]",
      "serialNumber" : "101789",
      "telNo" : "010-7628-9299"
    },
    {
      "address" : "부산광역시 사상구 백양대로 772 (덕포동,대명오토바이)",
      "defaultImgUrl" : "https:\/\/gf.dotstation.kr\/gogoro_station\/0\/basic_07f4807c90fff9f88dc6a833a12dcaac.jpg",
      "operateTime" : "09:00~18:00",
      "releaseDate" : "",
      "lat" : "35.175862404169",
      "dropFlag" : "N",
      "lon" : "128.988680757471",
      "name" : "대명오토바이[대명오토바이]",
      "serialNumber" : "101735",
      "telNo" : "010-3156-1584"
    },
    {
      "address" : "대전광역시 유성구 대학로 157-1 1층(궁동)",
      "defaultImgUrl" : "https:\/\/gf.dotstation.kr\/gogoro_station\/0\/basic_07f4807c90fff9f88dc6a833a12dcaac.jpg",
      "operateTime" : "",
      "releaseDate" : "",
      "lat" : "36.3606106624883",
      "dropFlag" : "N",
      "lon" : "127.350982219445",
      "name" : "대전 고고바이크 고샵[대전오토바이고고바이크]",
      "serialNumber" : "101915",
      "telNo" : "010-6410-5473"
    },
    {
      "address" : "대전광역시 유성구 유성대로642번길 53 102호(구암동)",
      "defaultImgUrl" : "https:\/\/gf.dotstation.kr\/gogoro_station\/0\/basic_07f4807c90fff9f88dc6a833a12dcaac.jpg",
      "operateTime" : "",
      "releaseDate" : "",
      "lat" : "36.3504151500601",
      "dropFlag" : "N",
      "lon" : "127.331211082525",
      "name" : "대전 구암MZ바이크 고샵[구암MZ바이크]",
      "serialNumber" : "102022",
      "telNo" : "010-5155-1554"
    },
    {
      "address" : "대전광역시 서구 둔산남로 216 (탄방동) 1층",
      "defaultImgUrl" : "https:\/\/gf.dotstation.kr\/gogoro_station\/0\/basic_07f4807c90fff9f88dc6a833a12dcaac.jpg",
      "operateTime" : "",
      "releaseDate" : "",
      "lat" : "36.3487510963665",
      "dropFlag" : "N",
      "lon" : "127.401342831279",
      "name" : "대전 닷스테이션 고샵[닷스테이션 대전점]",
      "serialNumber" : "101123",
      "telNo" : ""
    },
    {
      "address" : "대전광역시 동구 한밭대로 1291 (용전동)  1층 101호",
      "defaultImgUrl" : "https:\/\/gf.dotstation.kr\/gogoro_station\/0\/basic_07f4807c90fff9f88dc6a833a12dcaac.jpg",
      "operateTime" : "",
      "releaseDate" : "",
      "lat" : "36.3536802537894",
      "dropFlag" : "N",
      "lon" : "127.439455657797",
      "name" : "대전 동구 올바이크고샵[올바이크]",
      "serialNumber" : "101783",
      "telNo" : "010-9415-5767"
    },
    {
      "address" : "대전광역시 동구 우암로 214-2 1층(가양동)",
      "defaultImgUrl" : "https:\/\/gf.dotstation.kr\/gogoro_station\/0\/basic_07f4807c90fff9f88dc6a833a12dcaac.jpg",
      "operateTime" : "",
      "releaseDate" : "",
      "lat" : "36.3428036510633",
      "dropFlag" : "N",
      "lon" : "127.440601031727",
      "name" : "대전 디케이바이크 고샵[디케이바이크 대덕점]",
      "serialNumber" : "101902",
      "telNo" : "010-6490-5196"
    },
    {

      "address" : "대전광역시 서구 벌곡로 1347 1층(가수원동)",
      "defaultImgUrl" : "https:\/\/gf.dotstation.kr\/gogoro_station\/0\/basic_07f4807c90fff9f88dc6a833a12dcaac.jpg",
      "operateTime" : "",
      "releaseDate" : "",
      "lat" : "36.3015670750248",
      "dropFlag" : "N",
      "lon" : "127.354365794896",
      "name" : "대전 비에이치모토 고샵[비에치모토(BH MOTO)]",
      "serialNumber" : "102023",
      "telNo" : "01041030217"
    },
    {
      "address" : "대전광역시 서구 대덕대로 14-1 (내동) 1층 101호",
      "defaultImgUrl" : "https:\/\/gf.dotstation.kr\/gogoro_station\/0\/basic_07f4807c90fff9f88dc6a833a12dcaac.jpg",
      "operateTime" : "",
      "releaseDate" : "",
      "lat" : "36.3349533015221",
      "dropFlag" : "N",
      "lon" : "127.372673270182",
      "name" : "대전 서구 바이크뱅크 고샵[바이크뱅크 서구 내동점]",
      "serialNumber" : "101780",
      "telNo" : ""
    },
    {
      "address" : "대전광역시 서구 동서대로 1026 (내동)",
      "defaultImgUrl" : "https:\/\/gf.dotstation.kr\/gogoro_station\/0\/basic_07f4807c90fff9f88dc6a833a12dcaac.jpg",
      "operateTime" : "",
      "releaseDate" : "",
      "lat" : "36.3316043320628",
      "dropFlag" : "N",
      "lon" : "127.375556346791",
      "name" : "대전 서구 진바이크 고샵[진바이크 서구점]",
      "serialNumber" : "101781",
      "telNo" : "010-8813-1480"
    },
    {
      "address" : "대전광역시 서구 괴정로 88 (괴정동)",
      "defaultImgUrl" : "https:\/\/gf.dotstation.kr\/gogoro_station\/0\/basic_07f4807c90fff9f88dc6a833a12dcaac.jpg",
      "operateTime" : "",
      "releaseDate" : "",
      "lat" : "36.3392432107045",
      "dropFlag" : "N",
      "lon" : "127.383149668525",
      "name" : "대전 서구 타이거바이크 고샵[타이거 바이크]",
      "serialNumber" : "101755",
      "telNo" : ""
    },
    {
      "address" : "대전광역시 서구 월평로 78-1 (월평동)",
      "defaultImgUrl" : "https:\/\/gf.dotstation.kr\/gogoro_station\/0\/basic_07f4807c90fff9f88dc6a833a12dcaac.jpg",
      "operateTime" : "",
      "releaseDate" : "",
      "lat" : "36.3559840455534",
      "dropFlag" : "N",
      "lon" : "127.365672570076",
      "name" : "대전 신둔산 고샵[신둔산오토바이]",
      "serialNumber" : "101882",
      "telNo" : "010-5405-6131"
    },
    {
      "address" : "대전광역시 유성구 테크노3로 60 1층 119호(관평동)",
      "defaultImgUrl" : "https:\/\/gf.dotstation.kr\/gogoro_station\/0\/basic_07f4807c90fff9f88dc6a833a12dcaac.jpg",
      "operateTime" : "",
      "releaseDate" : "",
      "lat" : "36.4304534929866",
      "dropFlag" : "N",
      "lon" : "127.389412296567",
      "name" : "대전 에스제이바이크 고샵[에스제이 바이크]",
      "serialNumber" : "102024",
      "telNo" : "010-8528-2042"
    },
    {
      "address" : "대전광역시 서구 신갈마로 221 1층(갈마동)",
      "defaultImgUrl" : "https:\/\/gf.dotstation.kr\/gogoro_station\/0\/basic_07f4807c90fff9f88dc6a833a12dcaac.jpg",
      "operateTime" : "",
      "releaseDate" : "",
      "lat" : "36.3535679242644",
      "dropFlag" : "N",
      "lon" : "127.368745715106",
      "name" : "대전 영일바이크 고샵[영일바이크]",
      "serialNumber" : "102021",
      "telNo" : "01097590242"
    },
    {
      "address" : "대전광역시 서구 월평중로 2 101호(월평동)",
      "defaultImgUrl" : "https:\/\/gf.dotstation.kr\/gogoro_station\/0\/basic_07f4807c90fff9f88dc6a833a12dcaac.jpg",
      "operateTime" : "",
      "releaseDate" : "",
      "lat" : "36.3548264629825",
      "dropFlag" : "N",
      "lon" : "127.364145853089",
      "name" : "대전 위드바이크 고샵[위드바이크]",
      "serialNumber" : "101891",
      "telNo" : "010-8992-1196"
    },
    {
      "address" : "대전광역시 유성구 농대로 3 (궁동) 1층",
      "defaultImgUrl" : "https:\/\/gf.dotstation.kr\/gogoro_station\/0\/basic_07f4807c90fff9f88dc6a833a12dcaac.jpg",
      "operateTime" : "",
      "releaseDate" : "",
      "lat" : "36.3608905649321",
      "dropFlag" : "N",
      "lon" : "127.353459198105",
      "name" : "대전 유성 킹콩오토바이 고샵[킹콩오토바이]",
      "serialNumber" : "101798",
      "telNo" : "010-4403-4335"
    },
    {
      "address" : "대전광역시 중구 선화로12번길 18 (용두동)101호",
      "defaultImgUrl" : "https:\/\/gf.dotstation.kr\/gogoro_station\/0\/basic_07f4807c90fff9f88dc6a833a12dcaac.jpg",
      "operateTime" : "",
      "releaseDate" : "",
      "lat" : "36.3243552677062",
      "dropFlag" : "N",
      "lon" : "127.411596600442",
      "name" : "대전 중구 중앙모터스 고샵[중앙모터스]",
      "serialNumber" : "101779",
      "telNo" : ""
    },
    {
      "address" : "대전광역시 서구 갈마로 205 (괴정동) 101호",
      "defaultImgUrl" : "https:\/\/gf.dotstation.kr\/gogoro_station\/0\/basic_07f4807c90fff9f88dc6a833a12dcaac.jpg",
      "operateTime" : "",
      "releaseDate" : "",
      "lat" : "36.336763657338",
      "dropFlag" : "N",
      "lon" : "127.378301447705",
      "name" : "대전 티티게러지 고샵[티티게러지(TTgarage)]",
      "serialNumber" : "101835",
      "telNo" : "010-5623-4972"
    },
    {
      "telNo" : "010-6264-2614",
      "serialNumber" : "101896",
      "name" : "대전 G스테이션 고샵[지 스테이션]",
      "defaultImgUrl" : "https:\/\/gf.dotstation.kr\/gogoro_station\/0\/basic_07f4807c90fff9f88dc6a833a12dcaac.jpg",
      "operateTime" : "",
      "releaseDate" : "",
      "dropFlag" : "N",
      "address" : "대전광역시 유성구 계룡로46번길 74 1층 101호(구암동)",
      "lat" : "36.3521719685855",
      "lon" : "127.334584107535"
    },
    {
      "telNo" : "010-7270-9942",
      "serialNumber" : "101396",
      "name" : "대전동구 에스와이 바이크 고샵[에스와이 퀵서비스, 바이크샵]",
      "defaultImgUrl" : "https:\/\/gf.dotstation.kr\/gogoro_station\/0\/basic_07f4807c90fff9f88dc6a833a12dcaac.jpg",
      "operateTime" : "",
      "releaseDate" : "",
      "dropFlag" : "N",
      "address" : "대전광역시 동구 백룡로57번길 128 (자양동) 2층",
      "lat" : "36.338815037437",
      "lon" : "127.45061139664"
    },
    {
      "telNo" : "010-3433-0901",
      "serialNumber" : "101792",
      "name" : "대전동구용전 진바이크 고샵[진바이크 용전점]",
      "defaultImgUrl" : "https:\/\/gf.dotstation.kr\/gogoro_station\/0\/basic_07f4807c90fff9f88dc6a833a12dcaac.jpg",
      "operateTime" : "",
      "releaseDate" : "",
      "dropFlag" : "N",
      "address" : "대전광역시 동구 홍도로 68 (용전동)  1동 1층 진바이크",
      "lat" : "36.3520713392447",
      "lon" : "127.428225718538"
    },
    {
      "telNo" : "010-8716-8256",
      "serialNumber" : "100086",
      "name" : "더 바이크(THE BIKE)[더 바이크(THE BIKE)]",
      "defaultImgUrl" : "https:\/\/gf.dotstation.kr\/gogoro_station\/0\/basic_07f4807c90fff9f88dc6a833a12dcaac.jpg",
      "operateTime" : "",
      "releaseDate" : "",
      "dropFlag" : "N",
      "address" : "경기도 부천시 신흥로 47 (심곡동) ",
      "lat" : "37.4879944122013",
      "lon" : "126.776800245154"
    },
    {
      "telNo" : "010-2271-7878",
      "serialNumber" : "101697",
      "name" : "동광모터스[동광모터스]",
      "defaultImgUrl" : "https:\/\/gf.dotstation.kr\/gogoro_station\/0\/basic_07f4807c90fff9f88dc6a833a12dcaac.jpg",
      "operateTime" : "09:00~18:00",
      "releaseDate" : "",
      "dropFlag" : "N",
      "address" : "부산광역시 중구 대영로 246 (대창동2가)",
      "lat" : "35.1118902409085",
      "lon" : "129.037572283549"
    },
    {
      "telNo" : "010-4611-8362",
      "serialNumber" : "101715",
      "name" : "라이더스모터스[라이더스모터스]",
      "defaultImgUrl" : "https:\/\/gf.dotstation.kr\/gogoro_station\/0\/basic_07f4807c90fff9f88dc6a833a12dcaac.jpg",
      "operateTime" : "09:00~18:00",
      "releaseDate" : "",
      "dropFlag" : "N",
      "address" : "부산광역시 해운대구 재송1로 63 (재송동)",
      "lat" : "35.1876190906023",
      "lon" : "129.124229284824"
    },
    {
      "telNo" : "010-3561-9469",
      "serialNumber" : "100222",
      "name" : "마산 신흥오토바이 고샵[신흥오토바이]",
      "defaultImgUrl" : "https:\/\/gf.dotstation.kr\/gogoro_station\/0\/basic_07f4807c90fff9f88dc6a833a12dcaac.jpg",
      "operateTime" : "",
      "releaseDate" : "",
      "dropFlag" : "N",
      "address" : "경상남도 창원시 마산합포구 회원동북로 63 ",
      "lat" : "35.2186645293039",
      "lon" : "128.579704664038"
    },
    {
      "telNo" : "",
      "serialNumber" : "101710",
      "name" : "바이크뱅크 (금정점)[바이크뱅크 (금정점)]",
      "defaultImgUrl" : "https:\/\/gf.dotstation.kr\/gogoro_station\/0\/basic_07f4807c90fff9f88dc6a833a12dcaac.jpg",
      "operateTime" : "09:00~18:00",
      "releaseDate" : "",
      "dropFlag" : "N",
      "address" : "부산광역시 금정구 금정로 87-1 (장전동)",
      "lat" : "35.2325039701375",
      "lon" : "129.086678157212"
    },
    {
      "telNo" : "010-7100-5167",
      "serialNumber" : "101707",
      "name" : "바이크뱅크 사상점[바이크뱅크 사상점]",
      "defaultImgUrl" : "https:\/\/gf.dotstation.kr\/gogoro_station\/0\/basic_07f4807c90fff9f88dc6a833a12dcaac.jpg",
      "operateTime" : "09:00~18:00",
      "releaseDate" : "",
      "dropFlag" : "N",
      "address" : "부산광역시 사상구 괘감로 95 (괘법동,S&T)",
      "lat" : "35.1574061630928",
      "lon" : "128.98519877887"
    },
    {
      "telNo" : "",
      "serialNumber" : "101702",
      "name" : "바이크뱅크(하단점)[바이크뱅크(하단점)]",
      "defaultImgUrl" : "https:\/\/gf.dotstation.kr\/gogoro_station\/0\/basic_07f4807c90fff9f88dc6a833a12dcaac.jpg",
      "operateTime" : "09:00~18:00",
      "releaseDate" : "",
      "dropFlag" : "Y",
      "address" : "부산광역시 사하구 괴정로 36 (하단동)",
      "lat" : "35.1026964987115",
      "lon" : "128.968055053556"
    },
    {
      "telNo" : "010-7511-4440",
      "serialNumber" : "101939",
      "name" : "부산 국제바이크 고샵[국제바이크]",
      "defaultImgUrl" : "https:\/\/gf.dotstation.kr\/gogoro_station\/0\/basic_07f4807c90fff9f88dc6a833a12dcaac.jpg",
      "operateTime" : "",
      "releaseDate" : "",
      "dropFlag" : "N",
      "address" : "부산광역시 동구 수정로 23-1 1층(수정동)",
      "lat" : "35.1281851980091",
      "lon" : "129.044356545637"
    },
    {
      "telNo" : "010-9328-5442",
      "serialNumber" : "100243",
      "name" : "부산 남부오토바이 고샵[남부오토바이]",
      "defaultImgUrl" : "https:\/\/gf.dotstation.kr\/gogoro_station\/0\/basic_07f4807c90fff9f88dc6a833a12dcaac.jpg",
      "operateTime" : "",
      "releaseDate" : "",
      "dropFlag" : "N",
      "address" : "부산광역시 서구 천마로 133 1층(남부민동)",
      "lat" : "35.0877112043237",
      "lon" : "129.023234772348"
    },
    {
      "telNo" : "010-3594-2153",
      "serialNumber" : "102001",
      "name" : "부산 넥스트모빌리티 고샵[넥스트이브이모빌리티]",
      "defaultImgUrl" : "https:\/\/gf.dotstation.kr\/gogoro_station\/0\/basic_07f4807c90fff9f88dc6a833a12dcaac.jpg",
      "operateTime" : "",
      "releaseDate" : "",
      "dropFlag" : "N",
      "address" : "부산광역시 금정구 중앙대로 2061 1동 101호(남산동, 대박마을)",
      "lat" : "35.2684353010741",
      "lon" : "129.092505232989"
    },
    {
      "telNo" : "010-2555-4469",
      "serialNumber" : "101966",
      "name" : "부산 다대종합 고샵[다대종합오토바이]",
      "defaultImgUrl" : "https:\/\/gf.dotstation.kr\/gogoro_station\/0\/basic_07f4807c90fff9f88dc6a833a12dcaac.jpg",
      "operateTime" : "",
      "releaseDate" : "",
      "dropFlag" : "N",
      "address" : "부산광역시 사하구 다대동로 59 1층(다대동)",
      "lat" : "35.0576896049446",
      "lon" : "128.974062120764"
    },
    {
      "telNo" : "010-3570-4512",
      "serialNumber" : "100248",
      "name" : "부산 다리모터스 고샵[다리모터스]",
      "defaultImgUrl" : "https:\/\/gf.dotstation.kr\/gogoro_station\/0\/basic_07f4807c90fff9f88dc6a833a12dcaac.jpg",
      "operateTime" : "",
      "releaseDate" : "",
      "dropFlag" : "N",
      "address" : "부산광역시 수영구 망미번영로 69 1층일부(양미동)",
      "lat" : "35.1735419729701",
      "lon" : "129.110177719398"
    },
    {
      "telNo" : "010-4009-9433",
      "serialNumber" : "100208",
      "name" : "부산 닷스테이션 고샵[주식회사 프로바이크뱅크]",
      "defaultImgUrl" : "https:\/\/gf.dotstation.kr\/gogoro_station\/0\/basic_07f4807c90fff9f88dc6a833a12dcaac.jpg",
      "operateTime" : "",
      "releaseDate" : "",
      "dropFlag" : "N",
      "address" : "부산광역시 금정구 두실로45번길 5 ",
      "lat" : "35.261180156812",
      "lon" : "129.086436357976"
    },
    {
      "telNo" : "010-4009-9433",
      "serialNumber" : "100208",
      "name" : "부산 닷스테이션 고샵[주식회사 프로바이크뱅크]",
      "defaultImgUrl" : "https:\/\/gf.dotstation.kr\/gogoro_station\/0\/basic_07f4807c90fff9f88dc6a833a12dcaac.jpg",
      "operateTime" : "",
      "releaseDate" : "",
      "dropFlag" : "N",
      "address" : "부산광역시 금정구 두실로45번길 5 ",
      "lat" : "35.261180156812",
      "lon" : "129.086436357976"
    },
    {
      "telNo" : "010-4009-9433",
      "serialNumber" : "100208",
      "name" : "부산 닷스테이션 고샵[주식회사 프로바이크뱅크]",
      "defaultImgUrl" : "https:\/\/gf.dotstation.kr\/gogoro_station\/0\/basic_07f4807c90fff9f88dc6a833a12dcaac.jpg",
      "operateTime" : "",
      "releaseDate" : "",
      "dropFlag" : "N",
      "address" : "부산광역시 금정구 두실로45번길 5 ",
      "lat" : "35.261180156812",
      "lon" : "129.086436357976"
    },
    {
      "telNo" : "010-3020-1731",
      "serialNumber" : "101932",
      "name" : "부산 닷스테이션 대연점 고샵[고샵 대연점]",
      "defaultImgUrl" : "https:\/\/gf.dotstation.kr\/gogoro_station\/0\/basic_07f4807c90fff9f88dc6a833a12dcaac.jpg",
      "operateTime" : "",
      "releaseDate" : "",
      "dropFlag" : "N",
      "address" : "부산광역시 남구 조각공원로 43 (대연동)",
      "lat" : "35.1309536339382",
      "lon" : "129.101183999582"
    },
    {
      "telNo" : "010-7708-8428",
      "serialNumber" : "102005",
      "name" : "부산 닷스테이션 북부산점 고샵[닷스테이션 고고로 북부산점]",
      "defaultImgUrl" : "https:\/\/gf.dotstation.kr\/gogoro_station\/0\/basic_07f4807c90fff9f88dc6a833a12dcaac.jpg",
      "operateTime" : "",
      "releaseDate" : "",
      "dropFlag" : "N",
      "address" : "부산광역시 사상구 백양대로 984-1 (모라동)",
      "lat" : "35.1937825754924",
      "lon" : "128.993392490883"
    },
    {
      "telNo" : "010-6646-7617",
      "serialNumber" : "101946",
      "name" : "부산 닷스테이션 사하점 고샵[닷스테이션 고고로 사하점]",
      "defaultImgUrl" : "https:\/\/gf.dotstation.kr\/gogoro_station\/0\/basic_07f4807c90fff9f88dc6a833a12dcaac.jpg",
      "operateTime" : "",
      "releaseDate" : "",
      "dropFlag" : "N",
      "address" : "부산광역시 사하구 괴정로 36 (하단동)",
      "lat" : "35.1026964987115",
      "lon" : "128.968055053556"
    },
    {
      "lon" : "129.094748581854",
      "lat" : "35.1890007054559",
      "telNo" : "010-6500-5345",
      "serialNumber" : "101949",
      "name" : "부산 닷스테이션 양정점 고샵[다윈상사 부산 sym]",
      "defaultImgUrl" : "https:\/\/gf.dotstation.kr\/gogoro_station\/0\/basic_07f4807c90fff9f88dc6a833a12dcaac.jpg",
      "operateTime" : "",
      "releaseDate" : "",
      "dropFlag" : "N",
      "address" : "부산광역시 연제구 과정로 300 2층 (연산동)"
    },
    {
      "lon" : "129.083459005128",
      "lat" : "35.1827971588075",
      "telNo" : "010-3020-1731",
      "serialNumber" : "101933",
      "name" : "부산 닷스테이션 연제점 고샵[주식회사 프로바이크뱅크]",
      "defaultImgUrl" : "https:\/\/gf.dotstation.kr\/gogoro_station\/0\/basic_07f4807c90fff9f88dc6a833a12dcaac.jpg",
      "operateTime" : "",
      "releaseDate" : "",
      "dropFlag" : "N",
      "address" : "부산광역시 연제구 월드컵대로 94 지하2층(연산동)"
    },
    {
      "lon" : "128.988680757471",
      "lat" : "35.175862404169",
      "telNo" : "010-3156-1584",
      "serialNumber" : "101927",
      "name" : "부산 대명오토바이 고샵[대명오토바이]",
      "defaultImgUrl" : "https:\/\/gf.dotstation.kr\/gogoro_station\/0\/basic_07f4807c90fff9f88dc6a833a12dcaac.jpg",
      "operateTime" : "",
      "releaseDate" : "",
      "dropFlag" : "N",
      "address" : "부산광역시 사상구 백양대로 772 (덕포동,대명오토바이)"
    },
    {
      "lon" : "129.052874597485",
      "lat" : "35.1650276736268",
      "telNo" : "010-3861-1688",
      "serialNumber" : "101936",
      "name" : "부산 대왕모터스 고샵[대왕오토랜드]",
      "defaultImgUrl" : "https:\/\/gf.dotstation.kr\/gogoro_station\/0\/basic_07f4807c90fff9f88dc6a833a12dcaac.jpg",
      "operateTime" : "",
      "releaseDate" : "",
      "dropFlag" : "N",
      "address" : "부산광역시 부산진구 새싹로 93 (부암동)"
    },
    {
      "lon" : "129.012319298641",
      "lat" : "35.2115420302652",
      "telNo" : "010-8918-7357",
      "serialNumber" : "101930",
      "name" : "부산 덕천오토바이 고샵[덕천오토바이]",
      "defaultImgUrl" : "https:\/\/gf.dotstation.kr\/gogoro_station\/0\/basic_07f4807c90fff9f88dc6a833a12dcaac.jpg",
      "operateTime" : "",
      "releaseDate" : "",
      "dropFlag" : "N",
      "address" : "부산광역시 북구 만덕대로 68 (덕천동)"
    },
    {
      "lon" : "129.037572283549",
      "lat" : "35.1118902409085",
      "telNo" : "010-2271-7878",
      "serialNumber" : "101940",
      "name" : "부산 동광모터스 고샵[동광모터스]",
      "defaultImgUrl" : "https:\/\/gf.dotstation.kr\/gogoro_station\/0\/basic_07f4807c90fff9f88dc6a833a12dcaac.jpg",
      "operateTime" : "",
      "releaseDate" : "",
      "dropFlag" : "N",
      "address" : "부산광역시 중구 대영로 246 1층(대창동2가)"
    },
    {
      "lon" : "129.120855785595",
      "lat" : "35.1567910169393",
      "telNo" : "010-2938-2274",
      "serialNumber" : "101926",
      "name" : "부산 동방오토바이 고샵[DBMB]",
      "defaultImgUrl" : "https:\/\/gf.dotstation.kr\/gogoro_station\/0\/basic_07f4807c90fff9f88dc6a833a12dcaac.jpg",
      "operateTime" : "",
      "releaseDate" : "",
      "dropFlag" : "N",
      "address" : "부산광역시 수영구 민락로27번길 26 (민락동)"
    },
    {
      "lon" : "129.039254402399",
      "lat" : "35.0878232277515",
      "telNo" : "010-3856-1548",
      "serialNumber" : "100255",
      "name" : "부산 동진오토바이 고샵[동진오토바이]",
      "defaultImgUrl" : "https:\/\/gf.dotstation.kr\/gogoro_station\/0\/basic_07f4807c90fff9f88dc6a833a12dcaac.jpg",
      "operateTime" : "",
      "releaseDate" : "",
      "dropFlag" : "N",
      "address" : "부산광역시 영도구 절영로 77 1층(남창동2가)"
    },
    {
      "lon" : "129.092576284362",
      "lat" : "35.2243643270224",
      "telNo" : "010-5521-6756",
      "serialNumber" : "101910",
      "name" : "부산 디씨즈 고샵[디씨즈]",
      "defaultImgUrl" : "https:\/\/gf.dotstation.kr\/gogoro_station\/0\/basic_07f4807c90fff9f88dc6a833a12dcaac.jpg",
      "operateTime" : "",
      "releaseDate" : "",
      "dropFlag" : "N",
      "address" : "부산광역시 금정구 가마실로 34-1 1층(부곡동)"
    },
    {
      "lon" : "128.96142492194",
      "lat" : "35.1033706512951",
      "telNo" : "010-9957-8375",
      "serialNumber" : "101937",
      "name" : "부산 레드바이크 고샵[레드바이크]",
      "defaultImgUrl" : "https:\/\/gf.dotstation.kr\/gogoro_station\/0\/basic_07f4807c90fff9f88dc6a833a12dcaac.jpg",
      "operateTime" : "",
      "releaseDate" : "",
      "dropFlag" : "N",
      "address" : "부산광역시 사하구 하신중앙로 281 (하단동)"
    },
    {
      "lon" : "129.085110986546",
      "lat" : "35.1749712982393",
      "telNo" : "010-6608-8820",
      "serialNumber" : "101920",
      "name" : "부산 린바이크 고샵[린바이크]",
      "defaultImgUrl" : "https:\/\/gf.dotstation.kr\/gogoro_station\/0\/basic_07f4807c90fff9f88dc6a833a12dcaac.jpg",
      "operateTime" : "",
      "releaseDate" : "",
      "dropFlag" : "N",
      "address" : "부산광역시 연제구 연수로 131 (연산동)"
    },
    {
      "lon" : "129.181183767927",
      "lat" : "35.1748666582483",
      "telNo" : "010-8782-8265",
      "serialNumber" : "102006",
      "name" : "부산 림바이크 고샵[림바이크(오토바이)]",
      "defaultImgUrl" : "https:\/\/gf.dotstation.kr\/gogoro_station\/0\/basic_07f4807c90fff9f88dc6a833a12dcaac.jpg",
      "operateTime" : "",
      "releaseDate" : "",
      "dropFlag" : "N",
      "address" : "부산광역시 해운대구 좌동로 152 1층 101호, 144호(좌동,신도시시장)"
    },
    {
      "lon" : "129.004717776042",
      "lat" : "35.2055217795196",
      "telNo" : "010-4573-0478",
      "serialNumber" : "101908",
      "name" : "부산 명재오토바이 고샵[명재오토바이]",
      "defaultImgUrl" : "https:\/\/gf.dotstation.kr\/gogoro_station\/0\/basic_07f4807c90fff9f88dc6a833a12dcaac.jpg",
      "operateTime" : "",
      "releaseDate" : "",
      "dropFlag" : "N",
      "address" : "부산광역시 북구 백양대로 1156-2 (구포동)"
    },
    {
      "lon" : "129.115246707794",
      "lat" : "35.1612853835775",
      "telNo" : "010-4661-2806",
      "serialNumber" : "101944",
      "name" : "부산 몽바이크 고샵[몽바이크]",
      "defaultImgUrl" : "https:\/\/gf.dotstation.kr\/gogoro_station\/0\/basic_07f4807c90fff9f88dc6a833a12dcaac.jpg",
      "operateTime" : "",
      "releaseDate" : "",
      "dropFlag" : "N",
      "address" : "부산광역시 수영구 수영로624번길 9 1층(광안동)"
    },
    {
      "lon" : "128.98519877887",
      "lat" : "35.1574061630928",
      "telNo" : "010-6515-3542",
      "serialNumber" : "100233",
      "name" : "부산 바이크뱅크사상점 고샵[바이크 뱅크 (사상점)]",
      "defaultImgUrl" : "https:\/\/gf.dotstation.kr\/gogoro_station\/0\/basic_07f4807c90fff9f88dc6a833a12dcaac.jpg",
      "operateTime" : "",
      "releaseDate" : "",
      "dropFlag" : "N",
      "address" : "부산광역시 사상구 괘감로 95 1층(괘법동)"
    },
    {
      "lon" : "129.098465323208",
      "lat" : "35.2085458858127",
      "telNo" : "010-8383-6546",
      "serialNumber" : "100204",
      "name" : "부산 바이크아지트 고샵[바이크아지트]",
      "defaultImgUrl" : "https:\/\/gf.dotstation.kr\/gogoro_station\/0\/basic_07f4807c90fff9f88dc6a833a12dcaac.jpg",
      "operateTime" : "",
      "releaseDate" : "",
      "dropFlag" : "N",
      "address" : "부산광역시 동래구 시실로 172 1층(명장동)"
    },
    {
      "lon" : "129.085596684125",
      "lat" : "35.2283612064214",
      "telNo" : "010-4306-3911",
      "serialNumber" : "101917",
      "name" : "부산 바이크팩토리 고샵[바이크팩토리]",
      "defaultImgUrl" : "https:\/\/gf.dotstation.kr\/gogoro_station\/0\/basic_07f4807c90fff9f88dc6a833a12dcaac.jpg",
      "operateTime" : "",
      "releaseDate" : "",
      "dropFlag" : "N",
      "address" : "부산광역시 금정구 장전로 29 (장전동)"
    },
    {
      "lon" : "129.083580160002",
      "lat" : "35.2296309713449",
      "telNo" : "010-6743-5676",
      "serialNumber" : "101909",
      "name" : "부산 바이크필드 고샵[바이크필드]",
      "defaultImgUrl" : "https:\/\/gf.dotstation.kr\/gogoro_station\/0\/basic_07f4807c90fff9f88dc6a833a12dcaac.jpg",
      "operateTime" : "",
      "releaseDate" : "",
      "dropFlag" : "N",
      "address" : "부산광역시 금정구 장전로 52-1 1층(장전동)"
    },
    {
      "lon" : "129.028354103268",
      "lat" : "35.2108039509292",
      "telNo" : "010-9316-4996",
      "serialNumber" : "101918",
      "name" : "부산 백양모터스 고샵[백양 모터스]",
      "defaultImgUrl" : "https:\/\/gf.dotstation.kr\/gogoro_station\/0\/basic_07f4807c90fff9f88dc6a833a12dcaac.jpg",
      "operateTime" : "",
      "releaseDate" : "",
      "dropFlag" : "N",
      "address" : "부산광역시 북구 덕천로 219-1 1층(만덕동)"
    },
    {
      "lon" : "129.012283502879",
      "lat" : "35.2277258024436",
      "telNo" : "010-3857-2567",
      "serialNumber" : "101938",
      "name" : "부산 부경오토바이 고샵[부경오토바이상사]",
      "defaultImgUrl" : "https:\/\/gf.dotstation.kr\/gogoro_station\/0\/basic_07f4807c90fff9f88dc6a833a12dcaac.jpg",
      "operateTime" : "",
      "releaseDate" : "",
      "dropFlag" : "N",
      "address" : "부산광역시 북구 금곡대로 216-1 (화명동)"
    },
    {
      "lon" : "129.120872012039",
      "lat" : "35.1683932148164",
      "telNo" : "010-4542-6665",
      "serialNumber" : "101921",
      "name" : "부산 부산전기스쿠터 고샵[부산 전기 스쿠터]",
      "defaultImgUrl" : "https:\/\/gf.dotstation.kr\/gogoro_station\/0\/basic_07f4807c90fff9f88dc6a833a12dcaac.jpg",
      "operateTime" : "",
      "releaseDate" : "",
      "dropFlag" : "N",
      "address" : "부산광역시 수영구 수영로 743 1층(수영동)"
    },
    {
      "lon" : "129.027073181277",
      "telNo" : "010-7444-8319",
      "defaultImgUrl" : "https:\/\/gf.dotstation.kr\/gogoro_station\/0\/basic_07f4807c90fff9f88dc6a833a12dcaac.jpg",
      "dropFlag" : "N",
      "address" : "부산광역시 부산진구 냉정로 250 ",
      "releaseDate" : "",
      "name" : "부산 부산진구 진바이크 고샵[진 바이크 (진구점)]",
      "lat" : "35.1506701878217",
      "serialNumber" : "100210",
      "operateTime" : ""
    },
    {
      "lon" : "129.036512013504",
      "telNo" : "010-4012-7691",
      "defaultImgUrl" : "https:\/\/gf.dotstation.kr\/gogoro_station\/0\/basic_07f4807c90fff9f88dc6a833a12dcaac.jpg",
      "dropFlag" : "N",
      "address" : "부산광역시 동구 초량중로 15-2 1층(초량동)",
      "releaseDate" : "",
      "name" : "부산 스쿠터제이 고샵[스쿠터제이]",
      "lat" : "35.1136530951648",
      "serialNumber" : "100202",
      "operateTime" : ""
    },
    {
      "lon" : "129.110424822568",
      "telNo" : "010-7787-3179",
      "defaultImgUrl" : "https:\/\/gf.dotstation.kr\/gogoro_station\/0\/basic_07f4807c90fff9f88dc6a833a12dcaac.jpg",
      "dropFlag" : "N",
      "address" : "부산광역시 수영구 수영로 460 1층(남천동)",
      "releaseDate" : "",
      "name" : "부산 스쿠터프로 고샵[스쿠터 프로]",
      "lat" : "35.1468038198307",
      "serialNumber" : "102016",
      "operateTime" : ""
    },
    {
      "lon" : "129.090050594091",
      "telNo" : "010-8138-3183",
      "defaultImgUrl" : "https:\/\/gf.dotstation.kr\/gogoro_station\/0\/basic_07f4807c90fff9f88dc6a833a12dcaac.jpg",
      "dropFlag" : "N",
      "address" : "부산광역시 동래구 낙민로 22 (낙민동)",
      "releaseDate" : "",
      "name" : "부산 스타바이크 고샵[스타바이크]",
      "lat" : "35.1983797202188",
      "serialNumber" : "101960",
      "operateTime" : ""
    },
    {
      "lon" : "128.980107641001",
      "telNo" : "010-2020-1038",
      "defaultImgUrl" : "https:\/\/gf.dotstation.kr\/gogoro_station\/0\/basic_07f4807c90fff9f88dc6a833a12dcaac.jpg",
      "dropFlag" : "N",
      "address" : "부산광역시 사하구 다대로 415 (다대동)",
      "releaseDate" : "",
      "name" : "부산 신성바이크 고샵[신성바이크]",
      "lat" : "35.0658931566277",
      "serialNumber" : "101928",
      "operateTime" : ""
    },
    {
      "lon" : "128.977086608478",
      "telNo" : "010-9312-1591",
      "defaultImgUrl" : "https:\/\/gf.dotstation.kr\/gogoro_station\/0\/basic_07f4807c90fff9f88dc6a833a12dcaac.jpg",
      "dropFlag" : "N",
      "address" : "부산광역시 사하구 다대로 256 (장림동)",
      "releaseDate" : "",
      "name" : "부산 신화바이크 고샵[신화바이크]",
      "lat" : "35.0797455151052",
      "serialNumber" : "101945",
      "operateTime" : ""
    },
    {
      "lon" : "129.105855437179",
      "telNo" : "010-9199-4574",
      "defaultImgUrl" : "https:\/\/gf.dotstation.kr\/gogoro_station\/0\/basic_07f4807c90fff9f88dc6a833a12dcaac.jpg",
      "dropFlag" : "N",
      "address" : "부산광역시 동래구 명장로106번길 91 1층(명장동)",
      "releaseDate" : "",
      "name" : "부산 안락명장2호점 고샵[생각대로 안락명장2호점]",
      "lat" : "35.2021936620288",
      "serialNumber" : "100206",
      "operateTime" : ""
    },
    {
      "lon" : "129.051261854228",
      "telNo" : "010-8423-6403",
      "defaultImgUrl" : "https:\/\/gf.dotstation.kr\/gogoro_station\/0\/basic_07f4807c90fff9f88dc6a833a12dcaac.jpg",
      "dropFlag" : "N",
      "address" : "부산광역시 동구 중앙대로 413 1층(좌천동)",
      "releaseDate" : "",
      "name" : "부산 에스모터스 고샵[에스(S)모터스]",
      "lat" : "35.1317466822612",
      "serialNumber" : "101931",
      "operateTime" : ""
    },
    {
      "lon" : "129.067847421329",
      "telNo" : "010-9653-0308",
      "defaultImgUrl" : "https:\/\/gf.dotstation.kr\/gogoro_station\/0\/basic_07f4807c90fff9f88dc6a833a12dcaac.jpg",
      "dropFlag" : "N",
      "address" : "부산광역시 부산진구 동성로 98 1층(전포동)",
      "releaseDate" : "",
      "name" : "부산 엠피모터스 고샵[엠피모터스 주식회사]",
      "lat" : "35.1593464932421",
      "serialNumber" : "101922",
      "operateTime" : ""
    },
    {
      "lon" : "129.010706603954",
      "telNo" : "010-2288-4759",
      "defaultImgUrl" : "https:\/\/gf.dotstation.kr\/gogoro_station\/0\/basic_07f4807c90fff9f88dc6a833a12dcaac.jpg",
      "dropFlag" : "N",
      "address" : "부산광역시 북구 덕천2길 103 (덕천동)",
      "releaseDate" : "",
      "name" : "부산 영바이크 고샵[영바이크샵]",
      "lat" : "35.2103353197691",
      "serialNumber" : "101941",
      "operateTime" : ""
    },
    {
      "lon" : "129.029719375365",
      "telNo" : "010-8266-1901",
      "defaultImgUrl" : "https:\/\/gf.dotstation.kr\/gogoro_station\/0\/basic_07f4807c90fff9f88dc6a833a12dcaac.jpg",
      "dropFlag" : "N",
      "address" : "부산광역시 부산진구 가야대로 529 ",
      "releaseDate" : "",
      "name" : "부산 오케이모터스 고샵[오케이모터스]",
      "lat" : "35.1538915259411",
      "serialNumber" : "100209",
      "operateTime" : ""
    },
    {
      "lon" : "128.98158375038",
      "telNo" : "",
      "defaultImgUrl" : "https:\/\/gf.dotstation.kr\/gogoro_station\/0\/basic_07f4807c90fff9f88dc6a833a12dcaac.jpg",
      "dropFlag" : "N",
      "address" : "부산광역시 사상구 학장로135번길 1 (학장동)",
      "releaseDate" : "",
      "name" : "부산 오토바이 매매단지[부산 오토바이 매매단지]",
      "lat" : "35.1420723453074",
      "serialNumber" : "101706",
      "operateTime" : "09:00~18:00"
    },
    {
      "lon" : "129.047704372394",
      "telNo" : "010-4587-2063",
      "defaultImgUrl" : "https:\/\/gf.dotstation.kr\/gogoro_station\/0\/basic_07f4807c90fff9f88dc6a833a12dcaac.jpg",
      "dropFlag" : "N",
      "address" : "부산광역시 부산진구 가야대로 695 1층102호(당감동,골드스카이 80)",
      "releaseDate" : "",
      "name" : "부산 와이비바이크 고샵[와이비 바이크(YB BIKE)]",
      "lat" : "35.157056372379",
      "serialNumber" : "101925",
      "operateTime" : ""
    },
    {
      "lon" : "129.087491217574",
      "telNo" : "010-4563-9995",
      "defaultImgUrl" : "https:\/\/gf.dotstation.kr\/gogoro_station\/0\/basic_07f4807c90fff9f88dc6a833a12dcaac.jpg",
      "dropFlag" : "N",
      "address" : "부산광역시 남구 유엔로 102 1층(대연동)",
      "releaseDate" : "",
      "name" : "부산 왕바이크 고샵[왕 바이크]",
      "lat" : "35.1292873753314",
      "serialNumber" : "101942",
      "operateTime" : ""
    },
    {
      "lon" : "129.01559181539",
      "telNo" : "010-3593-5282",
      "defaultImgUrl" : "https:\/\/gf.dotstation.kr\/gogoro_station\/0\/basic_07f4807c90fff9f88dc6a833a12dcaac.jpg",
      "dropFlag" : "N",
      "address" : "부산광역시 북구 와석장터로 14 (화명동)",
      "releaseDate" : "",
      "name" : "부산 제일오토바이 고샵[제일오토바이]",
      "lat" : "35.2353441252592",
      "serialNumber" : "102003",
      "operateTime" : ""
    },
    {
      "lon" : "129.067138909568",
      "telNo" : "010-9907-7012",
      "defaultImgUrl" : "https:\/\/gf.dotstation.kr\/gogoro_station\/0\/basic_07f4807c90fff9f88dc6a833a12dcaac.jpg",
      "dropFlag" : "N",
      "address" : "부산광역시 남구 전포대로 46-2 1층(문현동,티이씨빌딩)",
      "releaseDate" : "",
      "name" : "부산 중앙오토바이 고샵[제이에이(JA)바이크]",
      "lat" : "35.1408995523238",
      "serialNumber" : "101958",
      "operateTime" : ""
    },
    {
      "lon" : "129.092348738076",
      "telNo" : "010-3033-7907",
      "defaultImgUrl" : "https:\/\/gf.dotstation.kr\/gogoro_station\/0\/basic_07f4807c90fff9f88dc6a833a12dcaac.jpg",
      "dropFlag" : "N",
      "address" : "부산광역시 금정구 부곡로 148 (부곡동)",
      "releaseDate" : "",
      "name" : "부산 지one 고샵[지-one]",
      "lat" : "35.2290338601619",
      "serialNumber" : "101912",
      "operateTime" : ""
    },
    {
      "lon" : "129.021751403841",
      "telNo" : "010-9184-8563",
      "defaultImgUrl" : "https:\/\/gf.dotstation.kr\/gogoro_station\/0\/basic_07f4807c90fff9f88dc6a833a12dcaac.jpg",
      "dropFlag" : "N",
      "address" : "부산광역시 서구 구덕로 131 (토성동5가)",
      "releaseDate" : "",
      "name" : "부산 최가모터스 고샵[최가모터스]",
      "lat" : "35.0967707146375",
      "serialNumber" : "101527",
      "operateTime" : ""
    },
    {
      "lon" : "129.003363673452",
      "telNo" : "010-2661-5282",
      "defaultImgUrl" : "https:\/\/gf.dotstation.kr\/gogoro_station\/0\/basic_07f4807c90fff9f88dc6a833a12dcaac.jpg",
      "dropFlag" : "N",
      "address" : "부산광역시 북구 금곡대로13번길 28 1층(덕천동)",
      "releaseDate" : "",
      "name" : "부산 태양바이크 고샵[태양바이크]",
      "lat" : "35.2109691304893",
      "serialNumber" : "100227",
      "operateTime" : ""
    },
    {
      "lon" : "128.986356798274",
      "telNo" : "010-8520-0880",
      "defaultImgUrl" : "https:\/\/gf.dotstation.kr\/gogoro_station\/0\/basic_07f4807c90fff9f88dc6a833a12dcaac.jpg",
      "dropFlag" : "N",
      "address" : "부산광역시 사상구 사상로531번길 61 (모라동)",
      "releaseDate" : "",
      "name" : "부산 텐바이크 고샵[텐바이크 (Ten Bike)]",
      "lat" : "35.1927418437409",
      "serialNumber" : "101916",
      "operateTime" : ""
    },
    {
      "lon" : "129.119808807429",
      "telNo" : "010-9231-4235",
      "defaultImgUrl" : "https:\/\/gf.dotstation.kr\/gogoro_station\/0\/basic_07f4807c90fff9f88dc6a833a12dcaac.jpg",
      "dropFlag" : "N",
      "address" : "부산광역시 수영구 구락로 12 1층 (수영동)",
      "releaseDate" : "",
      "name" : "부산 팔도오토바이 고샵[팔도오토바이]",
      "lat" : "35.1693437108393",
      "serialNumber" : "101948",
      "operateTime" : ""
    },
    {
      "serialNumber" : "101934",
      "lon" : "129.040915636886",
      "lat" : "35.0862402003273",
      "address" : "부산광역시 영도구 영선대로 55 (영선동3가)",
      "name" : "부산 한성오토바이 고샵[한성오토바이]",
      "defaultImgUrl" : "https:\/\/gf.dotstation.kr\/gogoro_station\/0\/basic_07f4807c90fff9f88dc6a833a12dcaac.jpg",
      "telNo" : "010-8534-9901",
      "operateTime" : "",
      "dropFlag" : "N",
      "releaseDate" : ""
    },
    {
      "serialNumber" : "101959",
      "lon" : "129.17155007333",
      "lat" : "35.1707031921868",
      "address" : "부산광역시 해운대구 대천로42번길 28-7 1층(중동)",
      "name" : "부산 해운대 진바이크 고샵[진바이크]",
      "defaultImgUrl" : "https:\/\/gf.dotstation.kr\/gogoro_station\/0\/basic_07f4807c90fff9f88dc6a833a12dcaac.jpg",
      "telNo" : "010-3903-7078",
      "operateTime" : "",
      "dropFlag" : "N",
      "releaseDate" : ""
    },
    {
      "serialNumber" : "101919",
      "lon" : "129.075188072553",
      "lat" : "35.1355693382091",
      "address" : "부산광역시 남구 수영로69번길 5 1층(문현동)",
      "name" : "부산 현바이크 고샵[현바이크]",
      "defaultImgUrl" : "https:\/\/gf.dotstation.kr\/gogoro_station\/0\/basic_07f4807c90fff9f88dc6a833a12dcaac.jpg",
      "telNo" : "010-9565-5449",
      "operateTime" : "",
      "dropFlag" : "N",
      "releaseDate" : ""
    },
    {
      "serialNumber" : "102009",
      "lon" : "129.020001037749",
      "lat" : "35.0984712242557",
      "address" : "부산광역시 서구 구덕로 155 1층,지하층(초장동)",
      "name" : "부산 형제모터스 고샵[형제 이륜차 검사소]",
      "defaultImgUrl" : "https:\/\/gf.dotstation.kr\/gogoro_station\/0\/basic_07f4807c90fff9f88dc6a833a12dcaac.jpg",
      "telNo" : "010-8884-3636",
      "operateTime" : "",
      "dropFlag" : "N",
      "releaseDate" : ""
    },
    {
      "serialNumber" : "100049",
      "lon" : "129.087488263307",
      "lat" : "35.23613783877",
      "address" : "부산광역시 금정구 금정로 129 ",
      "name" : "부산 JK모터스 고샵[(JK)모터스]",
      "defaultImgUrl" : "https:\/\/gf.dotstation.kr\/gogoro_station\/0\/basic_07f4807c90fff9f88dc6a833a12dcaac.jpg",
      "telNo" : "010-4278-9730",
      "operateTime" : "",
      "dropFlag" : "N",
      "releaseDate" : ""
    },
    {
      "serialNumber" : "101911",
      "lon" : "129.087210250832",
      "lat" : "35.243242135953",
      "address" : "부산광역시 금정구 금강로 398 1층(구서동)",
      "name" : "부산금정구 진바이크 고샵[진바이크]",
      "defaultImgUrl" : "https:\/\/gf.dotstation.kr\/gogoro_station\/0\/basic_07f4807c90fff9f88dc6a833a12dcaac.jpg",
      "telNo" : "010-5233-7757",
      "operateTime" : "",
      "dropFlag" : "N",
      "releaseDate" : ""
    },
    {
      "serialNumber" : "101913",
      "lon" : "129.105445196554",
      "lat" : "35.1992824318588",
      "address" : "부산광역시 동래구 안락로 78 1층(안락동)",
      "name" : "부산동래구 진바이크 고샵[진 바이크]",
      "defaultImgUrl" : "https:\/\/gf.dotstation.kr\/gogoro_station\/0\/basic_07f4807c90fff9f88dc6a833a12dcaac.jpg",
      "telNo" : "010-6279-4671",
      "operateTime" : "",
      "dropFlag" : "N",
      "releaseDate" : ""
    },
    {
      "serialNumber" : "101943",
      "lon" : "129.120701275534",
      "lat" : "35.158075248654",
      "address" : "부산광역시 수영구 광남로 196-2 (민락동)",
      "name" : "부산수영구 진바이크 고샵[진바이크]",
      "defaultImgUrl" : "https:\/\/gf.dotstation.kr\/gogoro_station\/0\/basic_07f4807c90fff9f88dc6a833a12dcaac.jpg",
      "telNo" : "010-4382-5852",
      "operateTime" : "",
      "dropFlag" : "N",
      "releaseDate" : ""
    },
    {
      "serialNumber" : "100254",
      "lon" : "129.076276093471",
      "lat" : "35.1859163593197",
      "address" : "부산광역시 연제구 중앙대로1075번길 77 1층(연산동)",
      "name" : "부산연제구 진바이크 고샵[진바이크]",
      "defaultImgUrl" : "https:\/\/gf.dotstation.kr\/gogoro_station\/0\/basic_07f4807c90fff9f88dc6a833a12dcaac.jpg",
      "telNo" : "010-9272-7731",
      "operateTime" : "",
      "dropFlag" : "N",
      "releaseDate" : ""
    },
    {
      "serialNumber" : "101951",
      "lon" : "129.044281881707",
      "lat" : "35.0888061625502",
      "address" : "부산광역시 영도구 꿈나무길 64 1층(영선동1가)",
      "name" : "부산영도구 진바이크 고샵[진바이크]",
      "defaultImgUrl" : "https:\/\/gf.dotstation.kr\/gogoro_station\/0\/basic_07f4807c90fff9f88dc6a833a12dcaac.jpg",
      "telNo" : "010-7734-0444",
      "operateTime" : "",
      "dropFlag" : "N",
      "releaseDate" : ""
    },
    {
      "serialNumber" : "101709",
      "lon" : "129.120872012039",
      "lat" : "35.1683932148164",
      "address" : "부산광역시 수영구 수영로 743 (수영동)",
      "name" : "부산전기 스쿠터[부산전기 스쿠터]",
      "defaultImgUrl" : "https:\/\/gf.dotstation.kr\/gogoro_station\/0\/basic_07f4807c90fff9f88dc6a833a12dcaac.jpg",
      "telNo" : "010-4542-6665",
      "operateTime" : "09:00~18:00",
      "dropFlag" : "N",
      "releaseDate" : ""
    },
    {
      "serialNumber" : "100819",
      "lon" : "126.77904012527",
      "lat" : "37.4908562531343",
      "address" : "경기 부천시 원미구 장말로 333 (심곡동)",
      "name" : "부천 생각대로부천 고샵[주식회사 생각대로부천]",
      "defaultImgUrl" : "https:\/\/gf.dotstation.kr\/gogoro_station\/0\/basic_07f4807c90fff9f88dc6a833a12dcaac.jpg",
      "telNo" : "010-8716-8256",
      "operateTime" : "",
      "dropFlag" : "N",
      "releaseDate" : ""
    },
    {
      "serialNumber" : "100819",
      "lon" : "126.77904012527",
      "lat" : "37.4908562531343",
      "address" : "경기 부천시 원미구 장말로 333 (심곡동)",
      "name" : "부천 생각대로부천 고샵[주식회사 생각대로부천]",
      "defaultImgUrl" : "https:\/\/gf.dotstation.kr\/gogoro_station\/0\/basic_07f4807c90fff9f88dc6a833a12dcaac.jpg",
      "telNo" : "010-8716-8256",
      "operateTime" : "",
      "dropFlag" : "N",
      "releaseDate" : ""
    },
    {
      "serialNumber" : "100819",
      "lon" : "126.77904012527",
      "lat" : "37.4908562531343",
      "address" : "경기 부천시 원미구 장말로 333 (심곡동)",
      "name" : "부천 생각대로부천 고샵[주식회사 생각대로부천]",
      "defaultImgUrl" : "https:\/\/gf.dotstation.kr\/gogoro_station\/0\/basic_07f4807c90fff9f88dc6a833a12dcaac.jpg",
      "telNo" : "010-8716-8256",
      "operateTime" : "",
      "dropFlag" : "N",
      "releaseDate" : ""
    },
    {
      "serialNumber" : "101885",
      "lon" : "127.035578696545",
      "lat" : "37.5067232303528",
      "address" : "서울특별시 강남구 봉은사로30길 15 (역삼동)",
      "name" : "서울 경복오토바이 고샵[경복오토바이]",
      "defaultImgUrl" : "https:\/\/gf.dotstation.kr\/gogoro_station\/0\/basic_07f4807c90fff9f88dc6a833a12dcaac.jpg",
      "telNo" : "010-8807-4116",
      "operateTime" : "",
      "dropFlag" : "N",
      "releaseDate" : ""
    },
    {
      "serialNumber" : "102014",
      "lon" : "127.087726553337",
      "lat" : "37.5469564652908",
      "address" : "서울특별시 광진구 자양로 228 1층(구의동,승원빌딩)",
      "name" : "서울 대성모터스 고샵[광진대성모터스]",
      "defaultImgUrl" : "https:\/\/gf.dotstation.kr\/gogoro_station\/0\/basic_07f4807c90fff9f88dc6a833a12dcaac.jpg",
      "telNo" : "010-8474-6007",
      "operateTime" : "",
      "dropFlag" : "N",
      "releaseDate" : ""
    },
    {
      "serialNumber" : "100121",
      "lon" : "126.914432703564",
      "lat" : "37.5952046197099",
      "address" : "서울특별시 은평구 증산로 437 1층(신사동)",
      "name" : "서울 더바이크 고샵[더 바이크]",
      "defaultImgUrl" : "https:\/\/gf.dotstation.kr\/gogoro_station\/0\/basic_07f4807c90fff9f88dc6a833a12dcaac.jpg",
      "telNo" : "010-8980-4710",
      "operateTime" : "",
      "dropFlag" : "N",
      "releaseDate" : ""
    },
    {
      "serialNumber" : "101892",
      "lon" : "127.116628512841",
      "lat" : "37.5081421732658",
      "address" : "서울특별시 송파구 오금로 203 지층(방이동,남양빌딩)",
      "name" : "서울 모터캐슬 고샵[(주)모터캐슬]",
      "defaultImgUrl" : "https:\/\/gf.dotstation.kr\/gogoro_station\/0\/basic_07f4807c90fff9f88dc6a833a12dcaac.jpg",
      "telNo" : "010-3746-6554",
      "operateTime" : "",
      "dropFlag" : "N",
      "releaseDate" : ""
    },
    {
      "serialNumber" : "101812",
      "lon" : "127.072496274418",
      "lat" : "37.6194502603585",
      "address" : "서울특별시 노원구 섬밭로 30 (공릉동,대동아파트) 1층 101호",
      "name" : "서울 모토스클럽 고샵[모토스클럽서울점]",
      "defaultImgUrl" : "https:\/\/gf.dotstation.kr\/gogoro_station\/0\/basic_07f4807c90fff9f88dc6a833a12dcaac.jpg",
      "telNo" : "010-3400-6664",
      "operateTime" : "",
      "dropFlag" : "N",
      "releaseDate" : ""
    },
    {
      "serialNumber" : "101599",
      "lon" : "127.045261303984",
      "lat" : "37.4940231208839",
      "address" : "서울특별시 강남구 도곡로 245 1층",
      "name" : "서울 붕붕모터스 고샵[붕붕모터스]",
      "defaultImgUrl" : "https:\/\/gf.dotstation.kr\/gogoro_station\/0\/basic_07f4807c90fff9f88dc6a833a12dcaac.jpg",
      "telNo" : "010-8498-4815",
      "operateTime" : "",
      "dropFlag" : "N",
      "releaseDate" : ""
    },
    {
      "serialNumber" : "101599",
      "lon" : "127.045261303984",
      "lat" : "37.4940231208839",
      "address" : "서울특별시 강남구 도곡로 245 1층",
      "name" : "서울 붕붕모터스 고샵[붕붕모터스]",
      "defaultImgUrl" : "https:\/\/gf.dotstation.kr\/gogoro_station\/0\/basic_07f4807c90fff9f88dc6a833a12dcaac.jpg",
      "telNo" : "010-8498-4815",
      "operateTime" : "",
      "dropFlag" : "N",
      "releaseDate" : ""
    },
    {
      "releaseDate" : "",
      "operateTime" : "",
      "telNo" : "010-9046-5421",
      "lon" : "127.023735010537",
      "dropFlag" : "N",
      "address" : "서울 강북구 솔샘로 281 (미아동)",
      "serialNumber" : "101820",
      "name" : "서울 삼양바이크 고샵[삼양바이크]",
      "lat" : "37.6187734988092",
      "defaultImgUrl" : "https:\/\/gf.dotstation.kr\/gogoro_station\/0\/basic_07f4807c90fff9f88dc6a833a12dcaac.jpg"
    },
    {
      "releaseDate" : "",
      "operateTime" : "",
      "telNo" : "010-9046-5421",
      "lon" : "127.023735010537",
      "dropFlag" : "N",
      "address" : "서울 강북구 솔샘로 281 (미아동)",
      "serialNumber" : "101820",
      "name" : "서울 삼양바이크 고샵[삼양바이크]",
      "lat" : "37.6187734988092",
      "defaultImgUrl" : "https:\/\/gf.dotstation.kr\/gogoro_station\/0\/basic_07f4807c90fff9f88dc6a833a12dcaac.jpg"
    },
    {
      "releaseDate" : "",
      "operateTime" : "",
      "telNo" : "010-8513-0675",
      "lon" : "127.019588773468",
      "dropFlag" : "N",
      "address" : "서울특별시 성북구 고려대로7길 62 (안암동1가) 1층",
      "serialNumber" : "101845",
      "name" : "서울 성북모터스 고샵[성북모터스]",
      "lat" : "37.5884835080159",
      "defaultImgUrl" : "https:\/\/gf.dotstation.kr\/gogoro_station\/0\/basic_07f4807c90fff9f88dc6a833a12dcaac.jpg"
    },
    {
      "releaseDate" : "",
      "operateTime" : "",
      "telNo" : "010-2418-4163",
      "lon" : "126.95027614634",
      "dropFlag" : "N",
      "address" : "서울특별시 마포구 신촌로 222 (아현동) 1층",
      "serialNumber" : "101489",
      "name" : "서울 세일바이크 고샵[세일바이크]",
      "lat" : "37.5568224381423",
      "defaultImgUrl" : "https:\/\/gf.dotstation.kr\/gogoro_station\/0\/basic_07f4807c90fff9f88dc6a833a12dcaac.jpg"
    },
    {
      "releaseDate" : "",
      "operateTime" : "",
      "telNo" : "010-6510-3000",
      "lon" : "126.955288994827",
      "dropFlag" : "N",
      "address" : "서울특별시 관악구 남부순환로 1845 (봉천동) 1동 103호, 203호",
      "serialNumber" : "101304",
      "name" : "서울 스즈키관악점 리더모터스 고샵[스즈키 관악점 리더모터스]",
      "lat" : "37.4806611116471",
      "defaultImgUrl" : "https:\/\/gf.dotstation.kr\/gogoro_station\/0\/basic_07f4807c90fff9f88dc6a833a12dcaac.jpg"
    },
    {
      "releaseDate" : "",
      "operateTime" : "",
      "telNo" : "",
      "lon" : "127.076661570151",
      "dropFlag" : "N",
      "address" : "서울특별시 광진구 광나루로 426 (화양동) 1층",
      "serialNumber" : "101400",
      "name" : "서울 엠75스테이션 고샵[엠75스테이션(M75 STATION)]",
      "lat" : "37.5459255860531",
      "defaultImgUrl" : "https:\/\/gf.dotstation.kr\/gogoro_station\/0\/basic_07f4807c90fff9f88dc6a833a12dcaac.jpg"
    },
    {
      "releaseDate" : "",
      "operateTime" : "",
      "telNo" : "010-5231-6154",
      "lon" : "126.908568602136",
      "dropFlag" : "N",
      "address" : "서울특별시 마포구 동교로 57 (망원동)",
      "serialNumber" : "101890",
      "name" : "서울 영진오토바이 고샵[영진오토바이]",
      "lat" : "37.5534170550706",
      "defaultImgUrl" : "https:\/\/gf.dotstation.kr\/gogoro_station\/0\/basic_07f4807c90fff9f88dc6a833a12dcaac.jpg"
    },
    {
      "releaseDate" : "",
      "operateTime" : "",
      "telNo" : "010-8716-5668",
      "lon" : "127.128534749374",
      "dropFlag" : "N",
      "address" : "서울특별시 강동구 풍성로 147-5 (성내동,다온하우스) 바이크 119",
      "serialNumber" : "101360",
      "name" : "서울 와이엑스에스 고샵[주식회사 와이엑스에스]",
      "lat" : "37.5313586536423",
      "defaultImgUrl" : "https:\/\/gf.dotstation.kr\/gogoro_station\/0\/basic_07f4807c90fff9f88dc6a833a12dcaac.jpg"
    },
    {
      "releaseDate" : "",
      "operateTime" : "",
      "telNo" : "010-4059-9405",
      "lon" : "127.019802757409",
      "dropFlag" : "N",
      "address" : "서울특별시 서초구 주흥16길 23 (반포동) 1층",
      "serialNumber" : "101842",
      "name" : "서울 우리바이크 고샵[우리 바이크]",
      "lat" : "37.5097466462785",
      "defaultImgUrl" : "https:\/\/gf.dotstation.kr\/gogoro_station\/0\/basic_07f4807c90fff9f88dc6a833a12dcaac.jpg"
    },
    {
      "releaseDate" : "",
      "operateTime" : "",
      "telNo" : "010-6788-1336",
      "lon" : "127.04080868818",
      "dropFlag" : "N",
      "address" : "서울특별시 도봉구 해등로 132 (창동) 1층",
      "serialNumber" : "101803",
      "name" : "서울 이륜차판매소 고샵[이륜차 판매소 서울]",
      "lat" : "37.6552942248842",
      "defaultImgUrl" : "https:\/\/gf.dotstation.kr\/gogoro_station\/0\/basic_07f4807c90fff9f88dc6a833a12dcaac.jpg"
    },
    {
      "releaseDate" : "",
      "operateTime" : "",
      "telNo" : "010-9493-2717",
      "lon" : "126.897779055882",
      "dropFlag" : "N",
      "address" : "서울특별시 금천구 시흥대로 427 (독산동) 1층",
      "serialNumber" : "101746",
      "name" : "서울 제이에스실업 고샵[주식회사 제이에스실업]",
      "lat" : "37.4716490468666",
      "defaultImgUrl" : "https:\/\/gf.dotstation.kr\/gogoro_station\/0\/basic_07f4807c90fff9f88dc6a833a12dcaac.jpg"
    },
    {
      "releaseDate" : "",
      "operateTime" : "",
      "telNo" : "010-3933-9899",
      "lon" : "127.036601478917",
      "dropFlag" : "N",
      "address" : "서울특별시 성동구 마장로29길 32 (마장동)",
      "serialNumber" : "101819",
      "name" : "서울 플러스모토 고샵[플러스 모토]",
      "lat" : "37.5688056229006",
      "defaultImgUrl" : "https:\/\/gf.dotstation.kr\/gogoro_station\/0\/basic_07f4807c90fff9f88dc6a833a12dcaac.jpg"
    },
    {
      "releaseDate" : "",
      "operateTime" : "",
      "telNo" : "010-4401-1744",
      "lon" : "127.073171926536",
      "dropFlag" : "N",
      "address" : "서울특별시 성동구 동일로 309 (송정동)",
      "serialNumber" : "101453",
      "name" : "서울광진 위더스모터스 고샵[주식회사 위더스모터스]",
      "lat" : "37.5589564100718",
      "defaultImgUrl" : "https:\/\/gf.dotstation.kr\/gogoro_station\/0\/basic_07f4807c90fff9f88dc6a833a12dcaac.jpg"
    },
    {
      "releaseDate" : "",
      "operateTime" : "10:00~20:00, (토\/일 휴무)",
      "telNo" : "1661-1910",
      "lon" : "127.061125017783",
      "dropFlag" : "N",
      "address" : "서울특별시 동대문구 한천로 43 (답십리동,리더스빌딩) 1층 105호",
      "serialNumber" : "100798",
      "name" : "서울동대문 위더스모터스 고샵[주식회사 위더스모터스]",
      "lat" : "37.5659476957408",
      "defaultImgUrl" : "https:\/\/gf.dotstation.kr\/gogoro_station\/0\/basic_07f4807c90fff9f88dc6a833a12dcaac.jpg"
    },
    {
      "releaseDate" : "",
      "operateTime" : "",
      "telNo" : "1611-1910",
      "lon" : "126.917043329917",
      "dropFlag" : "N",
      "address" : "서울특별시 마포구 월드컵북로 64 (성산동)",
      "serialNumber" : "101040",
      "name" : "서울마포 위더스모터스 고샵[주식회사 위더스모터스]",
      "lat" : "37.559872921739",
      "defaultImgUrl" : "https:\/\/gf.dotstation.kr\/gogoro_station\/0\/basic_07f4807c90fff9f88dc6a833a12dcaac.jpg"
    },
    {
      "releaseDate" : "",
      "operateTime" : "",
      "telNo" : "010-2326-5039",
      "lon" : "127.001858839392",
      "dropFlag" : "N",
      "address" : "서울특별시 중구 퇴계로 271 (오장동)",
      "serialNumber" : "101041",
      "name" : "서울중구 위더스모터스 고샵[주식회사 위더스모터스]",
      "lat" : "37.563229521544",
      "defaultImgUrl" : "https:\/\/gf.dotstation.kr\/gogoro_station\/0\/basic_07f4807c90fff9f88dc6a833a12dcaac.jpg"
    },
    {
      "releaseDate" : "",
      "operateTime" : "",
      "telNo" : "010-3140-2524",
      "lon" : "127.078942517996",
      "dropFlag" : "N",
      "address" : "서울특별시 중랑구 겸재로 99-4 (면목동)",
      "serialNumber" : "100124",
      "name" : "서울중랑구 형제종합 고샵[형제종합오토바이]",
      "lat" : "37.5866869334674",
      "defaultImgUrl" : "https:\/\/gf.dotstation.kr\/gogoro_station\/0\/basic_07f4807c90fff9f88dc6a833a12dcaac.jpg"
    },
    {
      "releaseDate" : "",
      "operateTime" : "",
      "telNo" : "010-8968-8070",
      "lon" : "127.25682153323",
      "dropFlag" : "N",
      "address" : "세종특별자치시 한누리대로 312 1층 112호(나성동,노블비지니스타운)",
      "serialNumber" : "101434",
      "name" : "세종 닷스테이션 고샵[로지올 행복지점]",
      "lat" : "36.4921124786211",
      "defaultImgUrl" : "https:\/\/gf.dotstation.kr\/gogoro_station\/0\/basic_07f4807c90fff9f88dc6a833a12dcaac.jpg"
    },
    {
      "releaseDate" : "",
      "operateTime" : "",
      "telNo" : "010-8968-8070",
      "lon" : "127.25682153323",
      "dropFlag" : "N",
      "address" : "세종특별자치시 한누리대로 312 1층 112호(나성동,노블비지니스타운)",
      "serialNumber" : "101434",
      "name" : "세종 닷스테이션 고샵[로지올 행복지점]",
      "lat" : "36.4921124786211",
      "defaultImgUrl" : "https:\/\/gf.dotstation.kr\/gogoro_station\/0\/basic_07f4807c90fff9f88dc6a833a12dcaac.jpg"
    },
    {

      "releaseDate" : "",
      "operateTime" : "",
      "telNo" : "010-8345-7444",
      "lon" : "126.974645232622",
      "dropFlag" : "N",
      "address" : "경기도 수원시 권선구 일월천로10번길 33 ",
      "serialNumber" : "100103",
      "name" : "수원 (주)시우시우 고샵[주식회사 시우시우]",
      "lat" : "37.283286340959",
      "defaultImgUrl" : "https:\/\/gf.dotstation.kr\/gogoro_station\/0\/basic_07f4807c90fff9f88dc6a833a12dcaac.jpg"
    },
    {
      "releaseDate" : "",
      "operateTime" : "",
      "telNo" : "010-3357-6765",
      "lon" : "127.028501068816",
      "dropFlag" : "N",
      "address" : "경기 수원시 권선구 권선동 1027-1 (권선동)",
      "serialNumber" : "101906",
      "name" : "수원 더바른컴퍼니 고샵[더 바른 컴퍼니]",
      "lat" : "37.258315433517",
      "defaultImgUrl" : "https:\/\/gf.dotstation.kr\/gogoro_station\/0\/basic_07f4807c90fff9f88dc6a833a12dcaac.jpg"
    },
    {
      "serialNumber" : "101906",
      "lat" : "37.258315433517",
      "lon" : "127.028501068816",
      "releaseDate" : "",
      "defaultImgUrl" : "https:\/\/gf.dotstation.kr\/gogoro_station\/0\/basic_07f4807c90fff9f88dc6a833a12dcaac.jpg",
      "address" : "경기 수원시 권선구 권선동 1027-1 (권선동)",
      "dropFlag" : "N",
      "telNo" : "010-3357-6765",
      "operateTime" : "",
      "name" : "수원 더바른컴퍼니 고샵[더 바른 컴퍼니]"
    },
    {
      "serialNumber" : "101830",
      "lat" : "37.2634637058916",
      "lon" : "127.048935432452",
      "releaseDate" : "",
      "defaultImgUrl" : "https:\/\/gf.dotstation.kr\/gogoro_station\/0\/basic_07f4807c90fff9f88dc6a833a12dcaac.jpg",
      "address" : "경기도 수원시 영통구 인계로 287 (매탄동)",
      "dropFlag" : "N",
      "telNo" : "010-3316-7120",
      "operateTime" : "",
      "name" : "수원 동수원모터스 고샵[동수원오토바이]"
    },
    {
      "serialNumber" : "102034",
      "lat" : "37.2532989696188",
      "lon" : "127.015329107403",
      "releaseDate" : "",
      "defaultImgUrl" : "https:\/\/gf.dotstation.kr\/gogoro_station\/0\/basic_07f4807c90fff9f88dc6a833a12dcaac.jpg",
      "address" : "경기도 수원시 권선구 세지로12번길 9-1 1층 일부(세류동)",
      "dropFlag" : "N",
      "telNo" : "010-5842-5811",
      "operateTime" : "",
      "name" : "수원 루모스 고샵[루모스]"
    },
    {
      "serialNumber" : "100151",
      "lat" : "37.2545900250511",
      "lon" : "127.027933576726",
      "releaseDate" : "",
      "defaultImgUrl" : "https:\/\/gf.dotstation.kr\/gogoro_station\/0\/basic_07f4807c90fff9f88dc6a833a12dcaac.jpg",
      "address" : "경기도 수원시 권선구 세권로 218 ",
      "dropFlag" : "N",
      "telNo" : "010-3942-8779",
      "operateTime" : "",
      "name" : "수원 미케닉 고샵[미케닉(Mechanic)]"
    },
    {
      "serialNumber" : "101965",
      "lat" : "37.2664539794241",
      "lon" : "127.049403883074",
      "releaseDate" : "",
      "defaultImgUrl" : "https:\/\/gf.dotstation.kr\/gogoro_station\/0\/basic_07f4807c90fff9f88dc6a833a12dcaac.jpg",
      "address" : "경기도 수원시 영통구 산남로 38 1층(매탄동)",
      "dropFlag" : "N",
      "telNo" : "010-7599-8964",
      "operateTime" : "",
      "name" : "수원 바이크24 고샵[바이크24]"
    },
    {
      "serialNumber" : "101809",
      "lat" : "37.2863855954583",
      "lon" : "127.005993229796",
      "releaseDate" : "",
      "defaultImgUrl" : "https:\/\/gf.dotstation.kr\/gogoro_station\/0\/basic_07f4807c90fff9f88dc6a833a12dcaac.jpg",
      "address" : "경기도 수원시 장안구 장안로7번길 18 (영화동)",
      "dropFlag" : "N",
      "telNo" : "010-3330-4463",
      "operateTime" : "",
      "name" : "수원 스타모터스 고샵[스타모터스]"
    },
    {
      "serialNumber" : "101802",
      "lat" : "37.2541690676453",
      "lon" : "126.99141346843",
      "releaseDate" : "",
      "defaultImgUrl" : "https:\/\/gf.dotstation.kr\/gogoro_station\/0\/basic_07f4807c90fff9f88dc6a833a12dcaac.jpg",
      "address" : "경기도 수원시 권선구 매송고색로793번길 4 (고색동) 1층",
      "dropFlag" : "N",
      "telNo" : "",
      "operateTime" : "",
      "name" : "수원 아띠모 고샵[아띠모 (수원점)]"
    },
    {
      "serialNumber" : "102008",
      "lat" : "37.2961452501355",
      "lon" : "127.000197935442",
      "releaseDate" : "",
      "defaultImgUrl" : "https:\/\/gf.dotstation.kr\/gogoro_station\/0\/basic_07f4807c90fff9f88dc6a833a12dcaac.jpg",
      "address" : "경기도 수원시 장안구 송정로 30 (정자동,주건축물제D동)",
      "dropFlag" : "N",
      "telNo" : "010-4576-4491",
      "operateTime" : "",
      "name" : "수원 에이스오토바이 고샵[에이스오토바이,진바이크]"
    },
    {
      "serialNumber" : "102027",
      "lat" : "37.2552019824577",
      "lon" : "127.05914039289",
      "releaseDate" : "",
      "defaultImgUrl" : "https:\/\/gf.dotstation.kr\/gogoro_station\/0\/basic_07f4807c90fff9f88dc6a833a12dcaac.jpg",
      "address" : "경기도 수원시 영통구 신원로211번길 19 1층 상가1층(매탄동)",
      "dropFlag" : "N",
      "telNo" : "010-8486-5282",
      "operateTime" : "",
      "name" : "수원 에이앤티바이크 고샵[주식회사 에이앤티바이크]"
    },
    {
      "serialNumber" : "101801",
      "lat" : "37.2692532762255",
      "lon" : "126.979836595482",
      "releaseDate" : "",
      "defaultImgUrl" : "https:\/\/gf.dotstation.kr\/gogoro_station\/0\/basic_07f4807c90fff9f88dc6a833a12dcaac.jpg",
      "address" : "경기도 수원시 권선구 서둔로 200 (서둔동)",
      "dropFlag" : "N",
      "telNo" : "010-5224-4360",
      "operateTime" : "",
      "name" : "수원 영동오토바이 고샵[영동오토바이]"
    },
    {
      "serialNumber" : "101840",
      "lat" : "37.27266836527",
      "lon" : "127.05132286712",
      "releaseDate" : "",
      "defaultImgUrl" : "https:\/\/gf.dotstation.kr\/gogoro_station\/0\/basic_07f4807c90fff9f88dc6a833a12dcaac.jpg",
      "address" : "경기도 수원시 영통구 매봉로35번길 38-22 (매탄동) 1층",
      "dropFlag" : "N",
      "telNo" : "010-4955-7293",
      "operateTime" : "",
      "name" : "수원 오토샵 고샵[오토샵 진바이크 수원 매탄점]"
    },
    {
      "serialNumber" : "101844",
      "lat" : "37.2683225050687",
      "lon" : "126.956423555594",
      "releaseDate" : "",
      "defaultImgUrl" : "https:\/\/gf.dotstation.kr\/gogoro_station\/0\/basic_07f4807c90fff9f88dc6a833a12dcaac.jpg",
      "address" : "경기도 수원시 권선구 매실로53번길 11 (호매실동) 1층 103호",
      "dropFlag" : "N",
      "telNo" : "010-8531-3089",
      "operateTime" : "",
      "name" : "수원 와리가리 고샵[와리가리 바이크]"
    },
    {
      "serialNumber" : "101800",
      "lat" : "37.25160204333",
      "lon" : "127.080395719215",
      "releaseDate" : "",
      "defaultImgUrl" : "https:\/\/gf.dotstation.kr\/gogoro_station\/0\/basic_07f4807c90fff9f88dc6a833a12dcaac.jpg",
      "address" : "경기도 수원시 영통구 청명로 47-1 (영통동)",
      "dropFlag" : "N",
      "telNo" : "010-4664-6911",
      "operateTime" : "",
      "name" : "수원 제이제이 고샵[제이제이모터스]"
    },
    {
      "serialNumber" : "101838",
      "lat" : "37.2489164316308",
      "lon" : "126.975360422257",
      "releaseDate" : "",
      "defaultImgUrl" : "https:\/\/gf.dotstation.kr\/gogoro_station\/0\/basic_07f4807c90fff9f88dc6a833a12dcaac.jpg",
      "address" : "경기도 수원시 권선구 매송고색로 646 (고색동)",
      "dropFlag" : "N",
      "telNo" : "010-9167-7337",
      "operateTime" : "",
      "name" : "수원 진흥모터샵 고샵[진흥모터샵]"
    },
    {
      "serialNumber" : "101501",
      "lat" : "37.2973195697934",
      "lon" : "127.043083037631",
      "releaseDate" : "",
      "defaultImgUrl" : "https:\/\/gf.dotstation.kr\/gogoro_station\/0\/basic_07f4807c90fff9f88dc6a833a12dcaac.jpg",
      "address" : "경기 수원시 영통구 대학1로8번길 12 (이의동)",
      "dropFlag" : "N",
      "telNo" : "010-2951-3197",
      "operateTime" : "",
      "name" : "수원 쿠키퍼 고샵[쿠키퍼]"
    },
    {
      "serialNumber" : "101501",
      "lat" : "37.2973195697934",
      "lon" : "127.043083037631",
      "releaseDate" : "",
      "defaultImgUrl" : "https:\/\/gf.dotstation.kr\/gogoro_station\/0\/basic_07f4807c90fff9f88dc6a833a12dcaac.jpg",
      "address" : "경기 수원시 영통구 대학1로8번길 12 (이의동)",
      "dropFlag" : "N",
      "telNo" : "010-2951-3197",
      "operateTime" : "",
      "name" : "수원 쿠키퍼 고샵[쿠키퍼]"
    },
    {
      "serialNumber" : "102028",
      "lat" : "37.2569075949365",
      "lon" : "127.019928012319",
      "releaseDate" : "",
      "defaultImgUrl" : "https:\/\/gf.dotstation.kr\/gogoro_station\/0\/basic_07f4807c90fff9f88dc6a833a12dcaac.jpg",
      "address" : "경기도 수원시 권선구 세권로 143 (권선동)",
      "dropFlag" : "N",
      "telNo" : "010-4655-5542",
      "operateTime" : "",
      "name" : "수원 티티바이크 고샵[티티 바이크(tt bike)]"
    },
    {
      "serialNumber" : "101799",
      "lat" : "37.3034412961664",
      "lon" : "126.991872019499",
      "releaseDate" : "",
      "defaultImgUrl" : "https:\/\/gf.dotstation.kr\/gogoro_station\/0\/basic_07f4807c90fff9f88dc6a833a12dcaac.jpg",
      "address" : "경기도 수원시 장안구 정자로 138 (정자동)",
      "dropFlag" : "N",
      "telNo" : "010-6688-1610",
      "operateTime" : "",
      "name" : "수원 프로바이크 고샵[프로바이크]"
    },
    {
      "serialNumber" : "102019",
      "lat" : "37.3056219169398",
      "lon" : "126.992223037398",
      "releaseDate" : "",
      "defaultImgUrl" : "https:\/\/gf.dotstation.kr\/gogoro_station\/0\/basic_07f4807c90fff9f88dc6a833a12dcaac.jpg",
      "address" : "경기도 수원시 장안구 장안로 264-6 1층 (정자동)",
      "dropFlag" : "N",
      "telNo" : "010-6221-9209",
      "operateTime" : "",
      "name" : "수원 행운오토바이 고샵[행운오토바이]"
    },
    {
      "serialNumber" : "101833",
      "lat" : "37.2805877756502",
      "lon" : "126.970933047155",
      "releaseDate" : "",
      "defaultImgUrl" : "https:\/\/gf.dotstation.kr\/gogoro_station\/0\/basic_07f4807c90fff9f88dc6a833a12dcaac.jpg",
      "address" : "경기도 수원시 권선구 구운로73번길 26-9 101호",
      "dropFlag" : "N",
      "telNo" : "",
      "operateTime" : "",
      "name" : "수원 히어로모터스 고샵[배달대행 히어로]"
    },
    {
      "serialNumber" : "101811",
      "lat" : "37.2725819776308",
      "lon" : "127.046469772304",
      "releaseDate" : "",
      "defaultImgUrl" : "https:\/\/gf.dotstation.kr\/gogoro_station\/0\/basic_07f4807c90fff9f88dc6a833a12dcaac.jpg",
      "address" : "경기도 수원시 영통구 동수원로 510 (매탄동)",
      "dropFlag" : "N",
      "telNo" : "010-8222-5282",
      "operateTime" : "",
      "name" : "수원 KR모터스 고샵[미래로모터스]"
    },
    {
      "lat" : "37.2431855811142",
      "telNo" : "010-8253-6140",
      "serialNumber" : "101804",
      "lon" : "127.067692280205",
      "name" : "수원 KS라이더스 고샵[가요콜]",
      "dropFlag" : "N",
      "releaseDate" : "",
      "operateTime" : "",
      "defaultImgUrl" : "https:\/\/gf.dotstation.kr\/gogoro_station\/0\/basic_07f4807c90fff9f88dc6a833a12dcaac.jpg",
      "address" : "경기도 용인시 기흥구 예현로35번길 5-14 (서천동) 1층 1층"
    },
    {
      "lat" : "37.3315877471276",
      "telNo" : "010-9120-9913",
      "serialNumber" : "102004",
      "lon" : "126.820826812058",
      "name" : "안산 탄탄대로 고샵[탄탄대로]",
      "dropFlag" : "N",
      "releaseDate" : "",
      "operateTime" : "",
      "defaultImgUrl" : "https:\/\/gf.dotstation.kr\/gogoro_station\/0\/basic_07f4807c90fff9f88dc6a833a12dcaac.jpg",
      "address" : "경기도 안산시 단원구 화정로 73  (와동)"
    },
    {
      "lat" : "37.3315877471276",
      "telNo" : "010-9120-9913",
      "serialNumber" : "102004",
      "lon" : "126.820826812058",
      "name" : "안산 탄탄대로 고샵[탄탄대로]",
      "dropFlag" : "N",
      "releaseDate" : "",
      "operateTime" : "",
      "defaultImgUrl" : "https:\/\/gf.dotstation.kr\/gogoro_station\/0\/basic_07f4807c90fff9f88dc6a833a12dcaac.jpg",
      "address" : "경기도 안산시 단원구 화정로 73  (와동)"
    },
    {
      "lat" : "35.2103353197691",
      "telNo" : "",
      "serialNumber" : "101705",
      "lon" : "129.010706603954",
      "name" : "영바이크[영바이크]",
      "dropFlag" : "N",
      "releaseDate" : "",
      "operateTime" : "09:00~18:00",
      "defaultImgUrl" : "https:\/\/gf.dotstation.kr\/gogoro_station\/0\/basic_07f4807c90fff9f88dc6a833a12dcaac.jpg",
      "address" : "부산광역시 북구 덕천2길 103 (덕천동) 1층"
    },
    {
      "lat" : "35.1538915259411",
      "telNo" : "",
      "serialNumber" : "101694",
      "lon" : "129.029719375365",
      "name" : "오케이 모터스[오케이 모터스]",
      "dropFlag" : "Y",
      "releaseDate" : "",
      "operateTime" : "09:00~18:00",
      "defaultImgUrl" : "https:\/\/gf.dotstation.kr\/gogoro_station\/0\/basic_07f4807c90fff9f88dc6a833a12dcaac.jpg",
      "address" : "부산광역시 부산진구 가야대로 529 (가야동)"
    },
    {
      "lat" : "35.1292873753314",
      "telNo" : "010-4563-9995",
      "serialNumber" : "101691",
      "lon" : "129.087491217574",
      "name" : "왕바이크[왕바이크]",
      "dropFlag" : "N",
      "releaseDate" : "",
      "operateTime" : "09:00~18:00",
      "defaultImgUrl" : "https:\/\/gf.dotstation.kr\/gogoro_station\/0\/basic_07f4807c90fff9f88dc6a833a12dcaac.jpg",
      "address" : "부산광역시 남구 유엔로 102 (대연동)"
    },
    {
      "lat" : "35.243242135953",
      "telNo" : "",
      "serialNumber" : "101711",
      "lon" : "129.087210250832",
      "name" : "우주오토바이[우주오토바이]",
      "dropFlag" : "Y",
      "releaseDate" : "",
      "operateTime" : "09:00~18:00",
      "defaultImgUrl" : "https:\/\/gf.dotstation.kr\/gogoro_station\/0\/basic_07f4807c90fff9f88dc6a833a12dcaac.jpg",
      "address" : "부산광역시 금정구 금강로 398 (구서동)"
    },
    {
      "lat" : "35.6281494876127",
      "telNo" : "010-9216-9191",
      "serialNumber" : "100259",
      "lon" : "129.356628886836",
      "name" : "울산 마스터 고샵[마스터 바이크]",
      "dropFlag" : "N",
      "releaseDate" : "",
      "operateTime" : "",
      "defaultImgUrl" : "https:\/\/gf.dotstation.kr\/gogoro_station\/0\/basic_07f4807c90fff9f88dc6a833a12dcaac.jpg",
      "address" : "울산광역시 북구 동대로 43 "
    },
    {
      "lat" : "35.5115597936212",
      "telNo" : "010-3821-1072",
      "serialNumber" : "100059",
      "lon" : "129.428800299438",
      "name" : "울산 손모터스 고샵[손 모터스]",
      "dropFlag" : "N",
      "releaseDate" : "",
      "operateTime" : "",
      "defaultImgUrl" : "https:\/\/gf.dotstation.kr\/gogoro_station\/0\/basic_07f4807c90fff9f88dc6a833a12dcaac.jpg",
      "address" : "울산광역시 동구 진성10길 136 "
    },
    {
      "lat" : "35.5396835701585",
      "telNo" : "010-5573-7028",
      "serialNumber" : "101446",
      "lon" : "129.423044552014",
      "name" : "울산 예스 고샵[예스바이크]",
      "dropFlag" : "N",
      "releaseDate" : "",
      "operateTime" : "",
      "defaultImgUrl" : "https:\/\/gf.dotstation.kr\/gogoro_station\/0\/basic_07f4807c90fff9f88dc6a833a12dcaac.jpg",
      "address" : "울산광역시 동구 방어진순환도로 1152 (서부동)"
    },
    {
      "lat" : "35.5573245480311",
      "telNo" : "",
      "serialNumber" : "101806",
      "lon" : "129.310894177788",
      "name" : "울산 중구모터스 고샵[중구모터스]",
      "dropFlag" : "N",
      "releaseDate" : "",
      "operateTime" : "",
      "defaultImgUrl" : "https:\/\/gf.dotstation.kr\/gogoro_station\/0\/basic_07f4807c90fff9f88dc6a833a12dcaac.jpg",
      "address" : "울산광역시 중구 명륜로 64 (우정동) 1층"
    },
    {
      "lat" : "35.5419773279651",
      "telNo" : "010-8693-5000",
      "serialNumber" : "100058",
      "lon" : "129.328300409684",
      "name" : "울산남구 닷스테이션 고샵[울산바이크뱅크주식회사]",
      "dropFlag" : "N",
      "releaseDate" : "",
      "operateTime" : "",
      "defaultImgUrl" : "https:\/\/gf.dotstation.kr\/gogoro_station\/0\/basic_07f4807c90fff9f88dc6a833a12dcaac.jpg",
      "address" : "울산광역시 남구 돋질로 210 "
    },
    {
      "lat" : "35.4932659631174",
      "telNo" : "010-8693-5000",
      "serialNumber" : "101312",
      "lon" : "129.426488675449",
      "name" : "울산동구 닷스테이션 고샵[닷스테이션울산동구점]",
      "dropFlag" : "N",
      "releaseDate" : "",
      "operateTime" : "",
      "defaultImgUrl" : "https:\/\/gf.dotstation.kr\/gogoro_station\/0\/basic_07f4807c90fff9f88dc6a833a12dcaac.jpg",
      "address" : "울산광역시 동구 방어진순환도로 575 (화정동)"
    },
    {
      "lat" : "35.5390409424129",
      "telNo" : "010-8553-9090",
      "serialNumber" : "101793",
      "lon" : "129.3871106199",
      "name" : "울산북구 디알 고샵[디알모터스]",
      "dropFlag" : "N",
      "releaseDate" : "",
      "operateTime" : "",
      "defaultImgUrl" : "https:\/\/gf.dotstation.kr\/gogoro_station\/0\/basic_07f4807c90fff9f88dc6a833a12dcaac.jpg",
      "address" : "울산광역시 북구 염포로 591-1 (양정동)"
    },
    {
      "lat" : "35.0916262304175",
      "telNo" : "010-4255-7798",
      "serialNumber" : "101704",
      "lon" : "128.9735417196",
      "name" : "이건바이크[이건바이크]",
      "dropFlag" : "N",
      "releaseDate" : "",
      "operateTime" : "09:00~18:00",
      "defaultImgUrl" : "https:\/\/gf.dotstation.kr\/gogoro_station\/0\/basic_07f4807c90fff9f88dc6a833a12dcaac.jpg",
      "address" : "부산광역시 사하구 장평로 286-1 (신평동)"
    },